<?xml version="1.0" encoding="utf-8"?>
<ArrayOfVolunteer xmlns:xsi="http://www.w3.org/2001/XMLSchema-instance" xmlns:xsd="http://www.w3.org/2001/XMLSchema">
  <Volunteer>
    <Id>616123774</Id>
    <Name>Amit Cohen</Name>
    <Phone>0534083084</Phone>
    <Mail>amitcohen@gmail.com</Mail>
    <Password>uC8}yKN"</Password>
    <Address>Herzl St 10, Tel Aviv, 6523701</Address>
    <Latitude>32.066158</Latitude>
    <Longitude>34.779808</Longitude>
    <Active>true</Active>
    <MaximumDistance>7</MaximumDistance>
    <Role>Manager</Role>
    <Type>Aerial</Type>
  </Volunteer>
  <Volunteer>
    <Id>914049713</Id>
    <Name>Noa Levi</Name>
    <Phone>0558638983</Phone>
    <Mail>noalevi@gmail.com</Mail>
    <Password>kT8^U7gj</Password>
    <Address>Ben Gurion St 5, Ramat Gan, 5222002</Address>
    <Latitude>32.082271</Latitude>
    <Longitude>34.812548</Longitude>
    <Active>true</Active>
    <MaximumDistance>6</MaximumDistance>
    <Role>Volunteer</Role>
    <Type>Aerial</Type>
  </Volunteer>
  <Volunteer>
    <Id>458504974</Id>
    <Name>Yonatan Mizrahi</Name>
    <Phone>0503983428</Phone>
    <Mail>yonatanmizrahi@gmail.com</Mail>
    <Password>eN7.Jy@7</Password>
    <Address>Dizengoff St 25, Tel Aviv, 6311701</Address>
    <Latitude>32.08048</Latitude>
    <Longitude>34.774989</Longitude>
    <Active>true</Active>
    <MaximumDistance>5</MaximumDistance>
    <Role>Volunteer</Role>
    <Type>Aerial</Type>
  </Volunteer>
  <Volunteer>
    <Id>371096348</Id>
    <Name>Maya Azulay</Name>
    <Phone>0528093007</Phone>
    <Mail>mayaazulay@gmail.com</Mail>
    <Password>hY9!5C2V</Password>
    <Address>Allenby St 40, Haifa, 3313302</Address>
    <Latitude>32.818409</Latitude>
    <Longitude>34.988507</Longitude>
    <Active>true</Active>
    <MaximumDistance>7</MaximumDistance>
    <Role>Volunteer</Role>
    <Type>Aerial</Type>
  </Volunteer>
  <Volunteer>
    <Id>118818178</Id>
    <Name>Daniel Gold</Name>
    <Phone>0525789104</Phone>
    <Mail>danielgold@gmail.com</Mail>
    <Password>fY6*562F</Password>
    <Address>Jaffa St 60, Jerusalem, 9434101</Address>
    <Latitude>31.784217</Latitude>
    <Longitude>35.223391</Longitude>
    <Active>true</Active>
    <MaximumDistance>7</MaximumDistance>
    <Role>Volunteer</Role>
    <Type>Aerial</Type>
  </Volunteer>
  <Volunteer>
    <Id>700248958</Id>
    <Name>Hila Shalom</Name>
    <Phone>0588105325</Phone>
    <Mail>hilashalom@gmail.com</Mail>
    <Password>rN4}TQMA</Password>
    <Address>Rothschild Blvd 16, Tel Aviv, 6688112</Address>
    <Latitude>32.063922</Latitude>
    <Longitude>34.771805</Longitude>
    <Active>true</Active>
    <MaximumDistance>4</MaximumDistance>
    <Role>Volunteer</Role>
    <Type>Aerial</Type>
  </Volunteer>
  <Volunteer>
    <Id>155728074</Id>
    <Name>Tomer Kaplan</Name>
    <Phone>0534203491</Phone>
    <Mail>tomerkaplan@gmail.com</Mail>
    <Password>aA7|xWpR</Password>
    <Address>Weizmann St 12, Kfar Saba, 4428104</Address>
    <Latitude>32.175034</Latitude>
    <Longitude>34.906552</Longitude>
    <Active>true</Active>
    <MaximumDistance>9</MaximumDistance>
    <Role>Volunteer</Role>
    <Type>Aerial</Type>
  </Volunteer>
  <Volunteer>
    <Id>817155864</Id>
    <Name>Yael Ben-David</Name>
    <Phone>0523930908</Phone>
    <Mail>yaelben-david@gmail.com</Mail>
    <Password>tW2#44p@</Password>
    <Address>HaNasi St 8, Herzliya, 4650403</Address>
    <Latitude>32.166313</Latitude>
    <Longitude>34.842972</Longitude>
    <Active>true</Active>
    <MaximumDistance>7</MaximumDistance>
    <Role>Volunteer</Role>
    <Type>Aerial</Type>
  </Volunteer>
  <Volunteer>
    <Id>738229624</Id>
    <Name>Eitan Sade</Name>
    <Phone>0585432330</Phone>
    <Mail>eitansade@gmail.com</Mail>
    <Password>cM4?6A21</Password>
    <Address>Sokolov St 30, Holon, 5831801</Address>
    <Latitude>32.014046</Latitude>
    <Longitude>34.772101</Longitude>
    <Active>true</Active>
    <MaximumDistance>3</MaximumDistance>
    <Role>Volunteer</Role>
    <Type>Aerial</Type>
  </Volunteer>
  <Volunteer>
    <Id>313823700</Id>
    <Name>Shira Hadad</Name>
    <Phone>0522443174</Phone>
    <Mail>shirahadad@gmail.com</Mail>
    <Password>fR1#t).u</Password>
    <Address>Ben Yehuda St 100, Tel Aviv, 6347511</Address>
    <Latitude>32.089771</Latitude>
    <Longitude>34.773922</Longitude>
    <Active>true</Active>
    <MaximumDistance>4</MaximumDistance>
    <Role>Volunteer</Role>
    <Type>Aerial</Type>
  </Volunteer>
  <Volunteer>
    <Id>603218983</Id>
    <Name>Lior Oren</Name>
    <Phone>0507631046</Phone>
    <Mail>liororen@gmail.com</Mail>
    <Password>aV8{*8.B</Password>
    <Address>Ehad HaAm St 50, Beersheba, 8455802</Address>
    <Latitude>31.25181</Latitude>
    <Longitude>34.79146</Longitude>
    <Active>false</Active>
    <MaximumDistance>0</MaximumDistance>
    <Role>Volunteer</Role>
    <Type>Aerial</Type>
  </Volunteer>
  <Volunteer>
    <Id>348988510</Id>
    <Name>Roni Peretz</Name>
    <Phone>0526528126</Phone>
    <Mail>roniperetz@gmail.com</Mail>
    <Password>lL8|kzD8</Password>
    <Address>Herzliya St 15, Netanya, 4241102</Address>
    <Latitude>32.328516</Latitude>
    <Longitude>34.853196</Longitude>
    <Active>false</Active>
    <MaximumDistance>4</MaximumDistance>
    <Role>Volunteer</Role>
    <Type>Aerial</Type>
  </Volunteer>
  <Volunteer>
    <Id>766788046</Id>
    <Name>Yaakov Azulay</Name>
    <Phone>0583257391</Phone>
    <Mail>yaakovazulay@gmail.com</Mail>
    <Password>gV1$FOfC</Password>
    <Address>Keren HaYesod St 22, Ashdod, 7728203</Address>
    <Latitude>31.802418</Latitude>
    <Longitude>34.641665</Longitude>
    <Active>false</Active>
    <MaximumDistance>7</MaximumDistance>
    <Role>Volunteer</Role>
    <Type>Aerial</Type>
  </Volunteer>
  <Volunteer>
    <Id>970938270</Id>
    <Name>Eden Dayan</Name>
    <Phone>0520944578</Phone>
    <Mail>edendayan@gmail.com</Mail>
    <Password>mA4}$qkB</Password>
    <Address>Herzl St 45, Rishon LeZion, 7522001</Address>
    <Latitude>31.969633</Latitude>
    <Longitude>34.80439</Longitude>
    <Active>false</Active>
    <MaximumDistance>6</MaximumDistance>
    <Role>Volunteer</Role>
    <Type>Aerial</Type>
  </Volunteer>
  <Volunteer>
    <Id>759159668</Id>
    <Name>Talia Mor</Name>
    <Phone>0588727063</Phone>
    <Mail>taliamor@gmail.com</Mail>
    <Password>cV0|*eD@</Password>
    <Address>Moshe Dayan St 3, Ashkelon, 7878203</Address>
    <Latitude>31.669258</Latitude>
    <Longitude>34.574262</Longitude>
    <Active>false</Active>
    <MaximumDistance>0</MaximumDistance>
    <Role>Volunteer</Role>
    <Type>Aerial</Type>
  </Volunteer>
</ArrayOfVolunteer>