<?xml version="1.0" encoding="utf-8"?>
<ArrayOfVolunteer xmlns:xsi="http://www.w3.org/2001/XMLSchema-instance" xmlns:xsd="http://www.w3.org/2001/XMLSchema">
  <Volunteer>
    <Id>234843757</Id>
    <Name>Amit Cohen</Name>
    <Phone>0554972444</Phone>
    <Mail>amitcohen@gmail.com</Mail>
    <Password>043Fbzc</Password>
    <Address>Herzl St 10, Tel Aviv, 6523701</Address>
    <Latitude>32.066158</Latitude>
    <Longitude>34.779808</Longitude>
    <Active>true</Active>
    <MaximumDistance>3</MaximumDistance>
    <Role>Manager</Role>
    <Type>Aerial</Type>
  </Volunteer>
  <Volunteer>
    <Id>213313734</Id>
    <Name>Noa Levi</Name>
    <Phone>0533783679</Phone>
    <Mail>noalevi@gmail.com</Mail>
    <Password>3sMb85Q</Password>
    <Address>Ben Gurion St 5, Ramat Gan, 5222002</Address>
    <Latitude>32.082271</Latitude>
    <Longitude>34.812548</Longitude>
    <Active>true</Active>
    <MaximumDistance>3</MaximumDistance>
    <Role>Volunteer</Role>
    <Type>Aerial</Type>
  </Volunteer>
  <Volunteer>
    <Id>349829495</Id>
    <Name>Yonatan Mizrahi</Name>
    <Phone>0559222699</Phone>
    <Mail>yonatanmizrahi@gmail.com</Mail>
    <Password>P761s2Y</Password>
    <Address>Dizengoff St 25, Tel Aviv, 6311701</Address>
    <Latitude>32.08048</Latitude>
    <Longitude>34.774989</Longitude>
    <Active>true</Active>
    <MaximumDistance>2</MaximumDistance>
    <Role>Volunteer</Role>
    <Type>Aerial</Type>
  </Volunteer>
  <Volunteer>
    <Id>259872803</Id>
    <Name>Maya Azulay</Name>
    <Phone>0584169421</Phone>
    <Mail>mayaazulay@gmail.com</Mail>
    <Password>DjtDSDS</Password>
    <Address>Allenby St 40, Haifa, 3313302</Address>
    <Latitude>32.818409</Latitude>
    <Longitude>34.988507</Longitude>
    <Active>true</Active>
    <MaximumDistance>4</MaximumDistance>
    <Role>Volunteer</Role>
    <Type>Aerial</Type>
  </Volunteer>
  <Volunteer>
    <Id>384789464</Id>
    <Name>Daniel Gold</Name>
    <Phone>0505904720</Phone>
    <Mail>danielgold@gmail.com</Mail>
    <Password>aImKt4j</Password>
    <Address>Jaffa St 60, Jerusalem, 9434101</Address>
    <Latitude>31.784217</Latitude>
    <Longitude>35.223391</Longitude>
    <Active>true</Active>
    <MaximumDistance>2</MaximumDistance>
    <Role>Volunteer</Role>
    <Type>Aerial</Type>
  </Volunteer>
  <Volunteer>
    <Id>213023232</Id>
    <Name>Hila Shalom</Name>
    <Phone>0541607985</Phone>
    <Mail>hilashalom@gmail.com</Mail>
    <Password>aEKvkaR</Password>
    <Address>Rothschild Blvd 16, Tel Aviv, 6688112</Address>
    <Latitude>32.063922</Latitude>
    <Longitude>34.771805</Longitude>
    <Active>true</Active>
    <MaximumDistance>9</MaximumDistance>
    <Role>Volunteer</Role>
    <Type>Aerial</Type>
  </Volunteer>
  <Volunteer>
    <Id>249251172</Id>
    <Name>Tomer Kaplan</Name>
    <Phone>0526276551</Phone>
    <Mail>tomerkaplan@gmail.com</Mail>
    <Password>Ihw0rto</Password>
    <Address>Weizmann St 12, Kfar Saba, 4428104</Address>
    <Latitude>32.175034</Latitude>
    <Longitude>34.906552</Longitude>
    <Active>true</Active>
    <MaximumDistance>2</MaximumDistance>
    <Role>Volunteer</Role>
    <Type>Aerial</Type>
  </Volunteer>
  <Volunteer>
    <Id>301865421</Id>
    <Name>Yael Ben-David</Name>
    <Phone>0559230276</Phone>
    <Mail>yaelben-david@gmail.com</Mail>
    <Password>hpm9WKh</Password>
    <Address>HaNasi St 8, Herzliya, 4650403</Address>
    <Latitude>32.166313</Latitude>
    <Longitude>34.842972</Longitude>
    <Active>true</Active>
    <MaximumDistance>3</MaximumDistance>
    <Role>Volunteer</Role>
    <Type>Aerial</Type>
  </Volunteer>
  <Volunteer>
    <Id>295527886</Id>
    <Name>Eitan Sade</Name>
    <Phone>0501393571</Phone>
    <Mail>eitansade@gmail.com</Mail>
    <Password>OpNDfdf</Password>
    <Address>Sokolov St 30, Holon, 5831801</Address>
    <Latitude>32.014046</Latitude>
    <Longitude>34.772101</Longitude>
    <Active>true</Active>
    <MaximumDistance>6</MaximumDistance>
    <Role>Volunteer</Role>
    <Type>Aerial</Type>
  </Volunteer>
  <Volunteer>
    <Id>326149974</Id>
    <Name>Shira Hadad</Name>
    <Phone>0587287482</Phone>
    <Mail>shirahadad@gmail.com</Mail>
    <Password>hU0ZAd8</Password>
    <Address>Ben Yehuda St 100, Tel Aviv, 6347511</Address>
    <Latitude>32.089771</Latitude>
    <Longitude>34.773922</Longitude>
    <Active>true</Active>
    <MaximumDistance>5</MaximumDistance>
    <Role>Volunteer</Role>
    <Type>Aerial</Type>
  </Volunteer>
  <Volunteer>
    <Id>363100601</Id>
    <Name>Lior Oren</Name>
    <Phone>0534949991</Phone>
    <Mail>liororen@gmail.com</Mail>
    <Password>nqudEjb</Password>
    <Address>Ehad HaAm St 50, Beersheba, 8455802</Address>
    <Latitude>31.25181</Latitude>
    <Longitude>34.79146</Longitude>
    <Active>false</Active>
    <MaximumDistance>2</MaximumDistance>
    <Role>Volunteer</Role>
    <Type>Aerial</Type>
  </Volunteer>
  <Volunteer>
    <Id>219227921</Id>
    <Name>Roni Peretz</Name>
    <Phone>0523072953</Phone>
    <Mail>roniperetz@gmail.com</Mail>
    <Password>QELUylu</Password>
    <Address>Herzliya St 15, Netanya, 4241102</Address>
    <Latitude>32.328516</Latitude>
    <Longitude>34.853196</Longitude>
    <Active>false</Active>
    <MaximumDistance>8</MaximumDistance>
    <Role>Volunteer</Role>
    <Type>Aerial</Type>
  </Volunteer>
  <Volunteer>
    <Id>204670409</Id>
    <Name>Yaakov Azulay</Name>
    <Phone>0535682950</Phone>
    <Mail>yaakovazulay@gmail.com</Mail>
    <Password>Daq0Aaa</Password>
    <Address>Keren HaYesod St 22, Ashdod, 7728203</Address>
    <Latitude>31.802418</Latitude>
    <Longitude>34.641665</Longitude>
    <Active>false</Active>
    <MaximumDistance>0</MaximumDistance>
    <Role>Volunteer</Role>
    <Type>Aerial</Type>
  </Volunteer>
  <Volunteer>
    <Id>357222649</Id>
    <Name>Eden Dayan</Name>
    <Phone>0586568921</Phone>
    <Mail>edendayan@gmail.com</Mail>
    <Password>uVruDkH</Password>
    <Address>Herzl St 45, Rishon LeZion, 7522001</Address>
    <Latitude>31.969633</Latitude>
    <Longitude>34.80439</Longitude>
    <Active>false</Active>
    <MaximumDistance>5</MaximumDistance>
    <Role>Volunteer</Role>
    <Type>Aerial</Type>
  </Volunteer>
  <Volunteer>
    <Id>312740958</Id>
    <Name>Talia Mor</Name>
    <Phone>0583749682</Phone>
    <Mail>taliamor@gmail.com</Mail>
    <Password>ebt6fIg</Password>
    <Address>Moshe Dayan St 3, Ashkelon, 7878203</Address>
    <Latitude>31.669258</Latitude>
    <Longitude>34.574262</Longitude>
    <Active>false</Active>
    <MaximumDistance>8</MaximumDistance>
    <Role>Volunteer</Role>
    <Type>Aerial</Type>
  </Volunteer>
</ArrayOfVolunteer>