<?xml version="1.0" encoding="utf-8"?>
<ArrayOfVolunteer xmlns:xsi="http://www.w3.org/2001/XMLSchema-instance" xmlns:xsd="http://www.w3.org/2001/XMLSchema">
  <Volunteer>
    <Id>220217029</Id>
    <Name>Amit Cohen</Name>
    <Phone>0528978201</Phone>
    <Mail>amitcohen@gmail.com</Mail>
    <Password>YAfSa8v</Password>
    <Address>Herzl St 10, Tel Aviv, 6523701</Address>
    <Latitude>32.066158</Latitude>
    <Longitude>34.779808</Longitude>
    <Active>true</Active>
    <MaximumDistance>0</MaximumDistance>
    <Role>Manager</Role>
    <Type>Aerial</Type>
  </Volunteer>
  <Volunteer>
    <Id>204349283</Id>
    <Name>Noa Levi</Name>
    <Phone>0520197829</Phone>
    <Mail>noalevi@gmail.com</Mail>
    <Password>aumn2fJ</Password>
    <Address>Ben Gurion St 5, Ramat Gan, 5222002</Address>
    <Latitude>32.082271</Latitude>
    <Longitude>34.812548</Longitude>
    <Active>true</Active>
    <MaximumDistance>7</MaximumDistance>
    <Role>Volunteer</Role>
    <Type>Aerial</Type>
  </Volunteer>
  <Volunteer>
    <Id>353474348</Id>
    <Name>Yonatan Mizrahi</Name>
    <Phone>0502169424</Phone>
    <Mail>yonatanmizrahi@gmail.com</Mail>
    <Password>2AYc8bH</Password>
    <Address>Dizengoff St 25, Tel Aviv, 6311701</Address>
    <Latitude>32.08048</Latitude>
    <Longitude>34.774989</Longitude>
    <Active>true</Active>
    <MaximumDistance>0</MaximumDistance>
    <Role>Volunteer</Role>
    <Type>Aerial</Type>
  </Volunteer>
  <Volunteer>
    <Id>351654414</Id>
    <Name>Maya Azulay</Name>
    <Phone>0557066631</Phone>
    <Mail>mayaazulay@gmail.com</Mail>
    <Password>KAm3Jz1</Password>
    <Address>Allenby St 40, Haifa, 3313302</Address>
    <Latitude>32.818409</Latitude>
    <Longitude>34.988507</Longitude>
    <Active>true</Active>
    <MaximumDistance>9</MaximumDistance>
    <Role>Volunteer</Role>
    <Type>Aerial</Type>
  </Volunteer>
  <Volunteer>
    <Id>255766586</Id>
    <Name>Daniel Gold</Name>
    <Phone>0528036439</Phone>
    <Mail>danielgold@gmail.com</Mail>
    <Password>wapAX1e</Password>
    <Address>Jaffa St 60, Jerusalem, 9434101</Address>
    <Latitude>31.784217</Latitude>
    <Longitude>35.223391</Longitude>
    <Active>true</Active>
    <MaximumDistance>5</MaximumDistance>
    <Role>Volunteer</Role>
    <Type>Aerial</Type>
  </Volunteer>
  <Volunteer>
    <Id>357082236</Id>
    <Name>Hila Shalom</Name>
    <Phone>0549787833</Phone>
    <Mail>hilashalom@gmail.com</Mail>
    <Password>odJulIn</Password>
    <Address>Rothschild Blvd 16, Tel Aviv, 6688112</Address>
    <Latitude>32.063922</Latitude>
    <Longitude>34.771805</Longitude>
    <Active>true</Active>
    <MaximumDistance>4</MaximumDistance>
    <Role>Volunteer</Role>
    <Type>Aerial</Type>
  </Volunteer>
  <Volunteer>
    <Id>312947132</Id>
    <Name>Tomer Kaplan</Name>
    <Phone>0540699495</Phone>
    <Mail>tomerkaplan@gmail.com</Mail>
    <Password>IGmaeQU</Password>
    <Address>Weizmann St 12, Kfar Saba, 4428104</Address>
    <Latitude>32.175034</Latitude>
    <Longitude>34.906552</Longitude>
    <Active>true</Active>
    <MaximumDistance>7</MaximumDistance>
    <Role>Volunteer</Role>
    <Type>Aerial</Type>
  </Volunteer>
  <Volunteer>
    <Id>209778158</Id>
    <Name>Yael Ben-David</Name>
    <Phone>0537745760</Phone>
    <Mail>yaelben-david@gmail.com</Mail>
    <Password>am6k0JB</Password>
    <Address>HaNasi St 8, Herzliya, 4650403</Address>
    <Latitude>32.166313</Latitude>
    <Longitude>34.842972</Longitude>
    <Active>true</Active>
    <MaximumDistance>4</MaximumDistance>
    <Role>Volunteer</Role>
    <Type>Aerial</Type>
  </Volunteer>
  <Volunteer>
    <Id>365449639</Id>
    <Name>Eitan Sade</Name>
    <Phone>0525935142</Phone>
    <Mail>eitansade@gmail.com</Mail>
    <Password>LQW2zAm</Password>
    <Address>Sokolov St 30, Holon, 5831801</Address>
    <Latitude>32.014046</Latitude>
    <Longitude>34.772101</Longitude>
    <Active>true</Active>
    <MaximumDistance>4</MaximumDistance>
    <Role>Volunteer</Role>
    <Type>Aerial</Type>
  </Volunteer>
  <Volunteer>
    <Id>268451216</Id>
    <Name>Shira Hadad</Name>
    <Phone>0544433903</Phone>
    <Mail>shirahadad@gmail.com</Mail>
    <Password>wnvUJPB</Password>
    <Address>Ben Yehuda St 100, Tel Aviv, 6347511</Address>
    <Latitude>32.089771</Latitude>
    <Longitude>34.773922</Longitude>
    <Active>true</Active>
    <MaximumDistance>9</MaximumDistance>
    <Role>Volunteer</Role>
    <Type>Aerial</Type>
  </Volunteer>
  <Volunteer>
    <Id>316807614</Id>
    <Name>Lior Oren</Name>
    <Phone>0503479711</Phone>
    <Mail>liororen@gmail.com</Mail>
    <Password>jUwQTGS</Password>
    <Address>Ehad HaAm St 50, Beersheba, 8455802</Address>
    <Latitude>31.25181</Latitude>
    <Longitude>34.79146</Longitude>
    <Active>false</Active>
    <MaximumDistance>4</MaximumDistance>
    <Role>Volunteer</Role>
    <Type>Aerial</Type>
  </Volunteer>
  <Volunteer>
    <Id>355656447</Id>
    <Name>Roni Peretz</Name>
    <Phone>0557279986</Phone>
    <Mail>roniperetz@gmail.com</Mail>
    <Password>FTKFUvt</Password>
    <Address>HaKibbutz HaMeuhad St 6, Kfar Yona</Address>
    <Latitude>32.317325</Latitude>
    <Longitude>34.919138</Longitude>
    <Active>false</Active>
    <MaximumDistance>9</MaximumDistance>
    <Role>Volunteer</Role>
    <Type>Aerial</Type>
  </Volunteer>
  <Volunteer>
    <Id>239146458</Id>
    <Name>Yaakov Azulay</Name>
    <Phone>0521304425</Phone>
    <Mail>yaakovazulay@gmail.com</Mail>
    <Password>APVnCVr</Password>
    <Address>Keren HaYesod St 22, Ashdod, 7728203</Address>
    <Latitude>31.802418</Latitude>
    <Longitude>34.641665</Longitude>
    <Active>false</Active>
    <MaximumDistance>1</MaximumDistance>
    <Role>Volunteer</Role>
    <Type>Aerial</Type>
  </Volunteer>
  <Volunteer>
    <Id>242917987</Id>
    <Name>Eden Dayan</Name>
    <Phone>0549226666</Phone>
    <Mail>edendayan@gmail.com</Mail>
    <Password>f3zegV2</Password>
    <Address>Herzl St 45, Rishon LeZion, 7522001</Address>
    <Latitude>31.969633</Latitude>
    <Longitude>34.80439</Longitude>
    <Active>false</Active>
    <MaximumDistance>2</MaximumDistance>
    <Role>Volunteer</Role>
    <Type>Walking</Type>
  </Volunteer>
  <Volunteer>
    <Id>366929118</Id>
    <Name>Talia Mor</Name>
    <Phone>0553429032</Phone>
    <Mail>taliamor@gmail.com</Mail>
    <Password>EmkW7UV</Password>
    <Address>Moshe Dayan St 3, Ashkelon, 7878203</Address>
    <Latitude>31.669258</Latitude>
    <Longitude>34.574262</Longitude>
    <Active>false</Active>
    <MaximumDistance>2</MaximumDistance>
    <Role>Volunteer</Role>
    <Type>Aerial</Type>
  </Volunteer>
  <Volunteer>
    <Id>213899412</Id>
    <Name>bihfc</Name>
    <Phone>0507437321</Phone>
    <Mail />
    <Password>12ASfd@#</Password>
    <Address>Sokolov St 30, Holon, 5831801</Address>
    <Latitude>32.014046</Latitude>
    <Longitude>34.772101</Longitude>
    <Active>true</Active>
    <MaximumDistance>8</MaximumDistance>
    <Role>Volunteer</Role>
    <Type>Walking</Type>
  </Volunteer>
</ArrayOfVolunteer>