<?xml version="1.0" encoding="utf-8"?>
<ArrayOfVolunteer xmlns:xsi="http://www.w3.org/2001/XMLSchema-instance" xmlns:xsd="http://www.w3.org/2001/XMLSchema">
  <Volunteer>
    <Id>226497255</Id>
    <Name>Amit Cohen</Name>
    <Phone>0500584451</Phone>
    <Mail>amitcohen@gmail.com</Mail>
    <Password>OnSdafG</Password>
    <Address>Herzl St 10, Tel Aviv, 6523701</Address>
    <Latitude>32.066158</Latitude>
    <Longitude>34.779808</Longitude>
    <Active>false</Active>
    <MaximumDistance>7</MaximumDistance>
    <Role>Management</Role>
    <Type>Aerial</Type>
  </Volunteer>
  <Volunteer>
    <Id>297153683</Id>
    <Name>Noa Levi</Name>
    <Phone>0506460531</Phone>
    <Mail>noalevi@gmail.com</Mail>
    <Password>UR1GBEc</Password>
    <Address>Ben Gurion St 5, Ramat Gan, 5222002</Address>
    <Latitude>32.082271</Latitude>
    <Longitude>34.812548</Longitude>
    <Active>false</Active>
    <MaximumDistance>8</MaximumDistance>
    <Role>Volunteer</Role>
    <Type>Aerial</Type>
  </Volunteer>
  <Volunteer>
    <Id>311156490</Id>
    <Name>Yonatan Mizrahi</Name>
    <Phone>0532380584</Phone>
    <Mail>yonatanmizrahi@gmail.com</Mail>
    <Password>gPGwxgs</Password>
    <Address>Dizengoff St 25, Tel Aviv, 6311701</Address>
    <Latitude>32.08048</Latitude>
    <Longitude>34.774989</Longitude>
    <Active>false</Active>
    <MaximumDistance>5</MaximumDistance>
    <Role>Volunteer</Role>
    <Type>Aerial</Type>
  </Volunteer>
  <Volunteer>
    <Id>282429348</Id>
    <Name>Maya Azulay</Name>
    <Phone>0525528614</Phone>
    <Mail>mayaazulay@gmail.com</Mail>
    <Password>xUje7cW</Password>
    <Address>Allenby St 40, Haifa, 3313302</Address>
    <Latitude>32.818409</Latitude>
    <Longitude>34.988507</Longitude>
    <Active>false</Active>
    <MaximumDistance>8</MaximumDistance>
    <Role>Volunteer</Role>
    <Type>Aerial</Type>
  </Volunteer>
  <Volunteer>
    <Id>285013222</Id>
    <Name>Daniel Gold</Name>
    <Phone>0529774007</Phone>
    <Mail>danielgold@gmail.com</Mail>
    <Password>ij8Ds74</Password>
    <Address>Jaffa St 60, Jerusalem, 9434101</Address>
    <Latitude>31.784217</Latitude>
    <Longitude>35.223391</Longitude>
    <Active>false</Active>
    <MaximumDistance>7</MaximumDistance>
    <Role>Volunteer</Role>
    <Type>Aerial</Type>
  </Volunteer>
  <Volunteer>
    <Id>339326883</Id>
    <Name>Hila Shalom</Name>
    <Phone>0509527400</Phone>
    <Mail>hilashalom@gmail.com</Mail>
    <Password>kIDQGzg</Password>
    <Address>Rothschild Blvd 16, Tel Aviv, 6688112</Address>
    <Latitude>32.063922</Latitude>
    <Longitude>34.771805</Longitude>
    <Active>false</Active>
    <MaximumDistance>2</MaximumDistance>
    <Role>Volunteer</Role>
    <Type>Aerial</Type>
  </Volunteer>
  <Volunteer>
    <Id>343764183</Id>
    <Name>Tomer Kaplan</Name>
    <Phone>0540797039</Phone>
    <Mail>tomerkaplan@gmail.com</Mail>
    <Password>ZPkC72p</Password>
    <Address>Weizmann St 12, Kfar Saba, 4428104</Address>
    <Latitude>32.175034</Latitude>
    <Longitude>34.906552</Longitude>
    <Active>false</Active>
    <MaximumDistance>0</MaximumDistance>
    <Role>Volunteer</Role>
    <Type>Aerial</Type>
  </Volunteer>
  <Volunteer>
    <Id>201421589</Id>
    <Name>Yael Ben-David</Name>
    <Phone>0543471625</Phone>
    <Mail>yaelben-david@gmail.com</Mail>
    <Password>seftG8D</Password>
    <Address>HaNasi St 8, Herzliya, 4650403</Address>
    <Latitude>32.166313</Latitude>
    <Longitude>34.842972</Longitude>
    <Active>false</Active>
    <MaximumDistance>2</MaximumDistance>
    <Role>Volunteer</Role>
    <Type>Aerial</Type>
  </Volunteer>
  <Volunteer>
    <Id>268911726</Id>
    <Name>Eitan Sade</Name>
    <Phone>0508334444</Phone>
    <Mail>eitansade@gmail.com</Mail>
    <Password>2vIq5aT</Password>
    <Address>Sokolov St 30, Holon, 5831801</Address>
    <Latitude>32.014046</Latitude>
    <Longitude>34.772101</Longitude>
    <Active>false</Active>
    <MaximumDistance>7</MaximumDistance>
    <Role>Volunteer</Role>
    <Type>Aerial</Type>
  </Volunteer>
  <Volunteer>
    <Id>391039166</Id>
    <Name>Shira Hadad</Name>
    <Phone>0529411649</Phone>
    <Mail>shirahadad@gmail.com</Mail>
    <Password>lQbZJpD</Password>
    <Address>Ben Yehuda St 100, Tel Aviv, 6347511</Address>
    <Latitude>32.089771</Latitude>
    <Longitude>34.773922</Longitude>
    <Active>false</Active>
    <MaximumDistance>3</MaximumDistance>
    <Role>Volunteer</Role>
    <Type>Aerial</Type>
  </Volunteer>
  <Volunteer>
    <Id>301269665</Id>
    <Name>Lior Oren</Name>
    <Phone>0500543173</Phone>
    <Mail>liororen@gmail.com</Mail>
    <Password>1laTtV5</Password>
    <Address>Ehad HaAm St 50, Beersheba, 8455802</Address>
    <Latitude>31.25181</Latitude>
    <Longitude>34.79146</Longitude>
    <Active>false</Active>
    <MaximumDistance>2</MaximumDistance>
    <Role>Volunteer</Role>
    <Type>Aerial</Type>
  </Volunteer>
  <Volunteer>
    <Id>237959605</Id>
    <Name>Roni Peretz</Name>
    <Phone>0584177078</Phone>
    <Mail>roniperetz@gmail.com</Mail>
    <Password>cjTDC7G</Password>
    <Address>Herzliya St 15, Netanya, 4241102</Address>
    <Latitude>32.328516</Latitude>
    <Longitude>34.853196</Longitude>
    <Active>false</Active>
    <MaximumDistance>7</MaximumDistance>
    <Role>Volunteer</Role>
    <Type>Aerial</Type>
  </Volunteer>
  <Volunteer>
    <Id>201205035</Id>
    <Name>Yaakov Azulay</Name>
    <Phone>0521173790</Phone>
    <Mail>yaakovazulay@gmail.com</Mail>
    <Password>FXBp4Th</Password>
    <Address>Keren HaYesod St 22, Ashdod, 7728203</Address>
    <Latitude>31.802418</Latitude>
    <Longitude>34.641665</Longitude>
    <Active>false</Active>
    <MaximumDistance>4</MaximumDistance>
    <Role>Volunteer</Role>
    <Type>Aerial</Type>
  </Volunteer>
  <Volunteer>
    <Id>268364181</Id>
    <Name>Eden Dayan</Name>
    <Phone>0544943499</Phone>
    <Mail>edendayan@gmail.com</Mail>
    <Password>lj6L2bf</Password>
    <Address>Herzl St 45, Rishon LeZion, 7522001</Address>
    <Latitude>31.969633</Latitude>
    <Longitude>34.80439</Longitude>
    <Active>false</Active>
    <MaximumDistance>2</MaximumDistance>
    <Role>Volunteer</Role>
    <Type>Aerial</Type>
  </Volunteer>
  <Volunteer>
    <Id>390802252</Id>
    <Name>Talia Mor</Name>
    <Phone>0523230096</Phone>
    <Mail>taliamor@gmail.com</Mail>
    <Password>712xDzu</Password>
    <Address>Moshe Dayan St 3, Ashkelon, 7878203</Address>
    <Latitude>31.669258</Latitude>
    <Longitude>34.574262</Longitude>
    <Active>false</Active>
    <MaximumDistance>3</MaximumDistance>
    <Role>Volunteer</Role>
    <Type>Aerial</Type>
  </Volunteer>
</ArrayOfVolunteer>