<?xml version="1.0" encoding="utf-8"?>
<ArrayOfVolunteer xmlns:xsi="http://www.w3.org/2001/XMLSchema-instance" xmlns:xsd="http://www.w3.org/2001/XMLSchema">
  <Volunteer>
    <Id>123456782</Id>
    <Name>Amit Cohen</Name>
    <Phone>0551384532</Phone>
    <Mail>amitcohen@gmail.com</Mail>
    <Password>12!@MAnager</Password>
    <Address>Herzl St 10, Tel Aviv, 6523701</Address>
    <Latitude>32.066158</Latitude>
    <Longitude>34.779808</Longitude>
    <Active>true</Active>
    <MaximumDistance>0</MaximumDistance>
    <Role>Manager</Role>
    <Type>Aerial</Type>
  </Volunteer>
  <Volunteer>
    <Id>588557447</Id>
    <Name>Yonatan Mizrahi</Name>
    <Phone>0552674488</Phone>
    <Mail>yonatanmizrahi@gmail.com</Mail>
    <Password>dF3^fA{2</Password>
    <Address>Dizengoff St 25, Tel Aviv, 6311701</Address>
    <Latitude>32.08048</Latitude>
    <Longitude>34.774989</Longitude>
    <Active>true</Active>
    <MaximumDistance>6</MaximumDistance>
    <Role>Volunteer</Role>
    <Type>Aerial</Type>
  </Volunteer>
  <Volunteer>
    <Id>917662504</Id>
    <Name>Maya Azulay</Name>
    <Phone>0508795883</Phone>
    <Mail>mayaazulay@gmail.com</Mail>
    <Password>zI4!Qxi9</Password>
    <Address>Allenby St 40, Haifa, 3313302</Address>
    <Latitude>32.818409</Latitude>
    <Longitude>34.988507</Longitude>
    <Active>true</Active>
    <MaximumDistance>9</MaximumDistance>
    <Role>Volunteer</Role>
    <Type>Aerial</Type>
  </Volunteer>
  <Volunteer>
    <Id>956619480</Id>
    <Name>Daniel Gold</Name>
    <Phone>0522564693</Phone>
    <Mail>danielgold@gmail.com</Mail>
    <Password>fX4!)*,M</Password>
    <Address>Jaffa St 60, Jerusalem, 9434101</Address>
    <Latitude>31.784217</Latitude>
    <Longitude>35.223391</Longitude>
    <Active>true</Active>
    <MaximumDistance>4</MaximumDistance>
    <Role>Volunteer</Role>
    <Type>Aerial</Type>
  </Volunteer>
  <Volunteer>
    <Id>567978440</Id>
    <Name>Tomer Kaplan</Name>
    <Phone>0584173818</Phone>
    <Mail>tomerkaplan@gmail.com</Mail>
    <Password>yF5.bSMF</Password>
    <Address>Weizmann St 12, Kfar Saba, 4428104</Address>
    <Latitude>32.175034</Latitude>
    <Longitude>34.906552</Longitude>
    <Active>true</Active>
    <MaximumDistance>1</MaximumDistance>
    <Role>Volunteer</Role>
    <Type>Aerial</Type>
  </Volunteer>
  <Volunteer>
    <Id>580548089</Id>
    <Name>Shira Hadad</Name>
    <Phone>0552929762</Phone>
    <Mail>shirahadad@gmail.com</Mail>
    <Password>qZ3}pP$K</Password>
    <Address>Ben Yehuda St 100, Tel Aviv, 6347511</Address>
    <Latitude>32.089771</Latitude>
    <Longitude>34.773922</Longitude>
    <Active>true</Active>
    <MaximumDistance>9</MaximumDistance>
    <Role>Volunteer</Role>
    <Type>Aerial</Type>
  </Volunteer>
  <Volunteer>
    <Id>752724138</Id>
    <Name>Lior Oren</Name>
    <Phone>0559248252</Phone>
    <Mail>liororen@gmail.com</Mail>
    <Password>yD1(W1Se</Password>
    <Address>Ehad HaAm St 50, Beersheba, 8455802</Address>
    <Latitude>31.25181</Latitude>
    <Longitude>34.79146</Longitude>
    <Active>false</Active>
    <MaximumDistance>3</MaximumDistance>
    <Role>Volunteer</Role>
    <Type>Aerial</Type>
  </Volunteer>
  <Volunteer>
    <Id>381796580</Id>
    <Name>Roni Peretz</Name>
    <Phone>0523672162</Phone>
    <Mail>roniperetz@gmail.com</Mail>
    <Password>gV5?qoAQ</Password>
    <Address>Herzliya St 15, Netanya, 4241102</Address>
    <Latitude>32.328516</Latitude>
    <Longitude>34.853196</Longitude>
    <Active>false</Active>
    <MaximumDistance>4</MaximumDistance>
    <Role>Volunteer</Role>
    <Type>Aerial</Type>
  </Volunteer>
  <Volunteer>
    <Id>218311280</Id>
    <Name>Yaakov Azulay</Name>
    <Phone>0553510208</Phone>
    <Mail>yaakovazulay@gmail.com</Mail>
    <Password>vK2^*m!L</Password>
    <Address>Keren HaYesod St 22, Ashdod, 7728203</Address>
    <Latitude>31.802418</Latitude>
    <Longitude>34.641665</Longitude>
    <Active>false</Active>
    <MaximumDistance>4</MaximumDistance>
    <Role>Volunteer</Role>
    <Type>Aerial</Type>
  </Volunteer>
  <Volunteer>
    <Id>289163735</Id>
    <Name>Eden Dayan</Name>
    <Phone>0544719646</Phone>
    <Mail>edendayan@gmail.com</Mail>
    <Password>dZ5!K!)}</Password>
    <Address>Herzl St 45, Rishon LeZion, 7522001</Address>
    <Latitude>31.969633</Latitude>
    <Longitude>34.80439</Longitude>
    <Active>false</Active>
    <MaximumDistance>6</MaximumDistance>
    <Role>Volunteer</Role>
    <Type>Aerial</Type>
  </Volunteer>
  <Volunteer>
    <Id>931764245</Id>
    <Name>Talia Mor</Name>
    <Phone>0520319777</Phone>
    <Mail>taliamor@gmail.com</Mail>
    <Password>mO8,H$F8</Password>
    <Address>Moshe Dayan St 3, Ashkelon, 7878203</Address>
    <Latitude>31.669258</Latitude>
    <Longitude>34.574262</Longitude>
    <Active>false</Active>
    <MaximumDistance>2</MaximumDistance>
    <Role>Volunteer</Role>
    <Type>Aerial</Type>
  </Volunteer>
  <Volunteer>
    <Id>899878060</Id>
    <Name>Yael Ben-David</Name>
    <Phone>0584388237</Phone>
    <Mail>yaelben-david@gmail.com</Mail>
    <Password>zX5%aR)*</Password>
    <Address>HaNasi St 8, Herzliya, 4650403</Address>
    <Latitude>32.166313</Latitude>
    <Longitude>34.842972</Longitude>
    <Active>true</Active>
    <MaximumDistance>8</MaximumDistance>
    <Role>Volunteer</Role>
    <Type>Aerial</Type>
  </Volunteer>
  <Volunteer>
    <Id>773303219</Id>
    <Name>Noa Levi</Name>
    <Phone>0534022117</Phone>
    <Mail>noalevi@gmail.com</Mail>
    <Password>kS6*pjKC</Password>
    <Address>Ben Gurion St 5, Ramat Gan, 5222002</Address>
    <Latitude>32.082271</Latitude>
    <Longitude>34.812548</Longitude>
    <Active>true</Active>
    <MaximumDistance>4</MaximumDistance>
    <Role>Volunteer</Role>
    <Type>Aerial</Type>
  </Volunteer>
  <Volunteer>
    <Id>956600613</Id>
    <Name>Hila Shalom</Name>
    <Phone>0503106659</Phone>
    <Mail>hilashalom@gmail.com</Mail>
    <Password>tM9"6PdC</Password>
    <Address>Rothschild Blvd 16, Tel Aviv, 6688112</Address>
    <Latitude>32.063922</Latitude>
    <Longitude>34.771805</Longitude>
    <Active>true</Active>
    <MaximumDistance>4</MaximumDistance>
    <Role>Volunteer</Role>
    <Type>Aerial</Type>
  </Volunteer>
  <Volunteer>
    <Id>532672284</Id>
    <Name>Eitan Sade</Name>
    <Phone>0539676184</Phone>
    <Mail>eitansade@gmail.com</Mail>
    <Password>yV1!7ks4</Password>
    <Address>Sokolov St 30, Holon, 5831801</Address>
    <Latitude>32.014046</Latitude>
    <Longitude>34.772101</Longitude>
    <Active>true</Active>
    <MaximumDistance>9</MaximumDistance>
    <Role>Volunteer</Role>
    <Type>Aerial</Type>
  </Volunteer>
</ArrayOfVolunteer>