<?xml version="1.0" encoding="utf-8"?>
<ArrayOfVolunteer xmlns:xsi="http://www.w3.org/2001/XMLSchema-instance" xmlns:xsd="http://www.w3.org/2001/XMLSchema">
  <Volunteer>
    <Id>123456782</Id>
    <Name>Amit Cohen</Name>
    <Phone>0549490566</Phone>
    <Mail>amitcohen@gmail.com</Mail>
    <Password>12!@MAnager</Password>
    <Address>15 HaNevi'im St, Jerusalem, Israel</Address>
    <Latitude>31.7801</Latitude>
    <Longitude>35.2223</Longitude>
    <Active>true</Active>
    <MaximumDistance>3</MaximumDistance>
    <Role>Manager</Role>
    <Type>Aerial</Type>
  </Volunteer>
  <Volunteer>
    <Id>218311280</Id>
    <Name>Noa Levi</Name>
    <Phone>0500944204</Phone>
    <Mail>noalevi@gmail.com</Mail>
    <Password>vK2^*m!L</Password>
    <Address>100 Dizengoff St, Tel Aviv, Israel</Address>
    <Latitude>32.0869</Latitude>
    <Longitude>34.7745</Longitude>
    <Active>true</Active>
    <MaximumDistance>8</MaximumDistance>
    <Role>Volunteer</Role>
    <Type>Aerial</Type>
  </Volunteer>
  <Volunteer>
    <Id>289163735</Id>
    <Name>Yonatan Mizrahi</Name>
    <Phone>0539020761</Phone>
    <Mail>yonatanmizrahi@gmail.com</Mail>
    <Password>dZ5!K!)}</Password>
    <Address>50 Herzl St, Haifa, Israel</Address>
    <Latitude>32.8153</Latitude>
    <Longitude>34.9896</Longitude>
    <Active>true</Active>
    <MaximumDistance>7</MaximumDistance>
    <Role>Volunteer</Role>
    <Type>Aerial</Type>
  </Volunteer>
  <Volunteer>
    <Id>646886317</Id>
    <Name>Maya Azulay</Name>
    <Phone>0588857345</Phone>
    <Mail>mayaazulay@gmail.com</Mail>
    <Password>pQ5"WK%Q</Password>
    <Address>5 Ben Gurion St, Herzliya, Israel</Address>
    <Latitude>32.1613</Latitude>
    <Longitude>34.8337</Longitude>
    <Active>true</Active>
    <MaximumDistance>5</MaximumDistance>
    <Role>Volunteer</Role>
    <Type>Aerial</Type>
  </Volunteer>
  <Volunteer>
    <Id>932902083</Id>
    <Name>Daniel Gold</Name>
    <Phone>0552983855</Phone>
    <Mail>danielgold@gmail.com</Mail>
    <Password>jU8|Bqi#</Password>
    <Address>20 Rothschild Blvd, Tel Aviv, Israel</Address>
    <Latitude>32.065</Latitude>
    <Longitude>34.7732</Longitude>
    <Active>true</Active>
    <MaximumDistance>0</MaximumDistance>
    <Role>Volunteer</Role>
    <Type>Aerial</Type>
  </Volunteer>
  <Volunteer>
    <Id>137895058</Id>
    <Name>Hila Shalom</Name>
    <Phone>0501405016</Phone>
    <Mail>hilashalom@gmail.com</Mail>
    <Password>kK9}UsG#</Password>
    <Address>30 Hillel St, Jerusalem, Israel</Address>
    <Latitude>31.7798</Latitude>
    <Longitude>35.2207</Longitude>
    <Active>true</Active>
    <MaximumDistance>1</MaximumDistance>
    <Role>Volunteer</Role>
    <Type>Aerial</Type>
  </Volunteer>
  <Volunteer>
    <Id>520363847</Id>
    <Name>Tomer Kaplan</Name>
    <Phone>0523950016</Phone>
    <Mail>tomerkaplan@gmail.com</Mail>
    <Password>wK1.8X*s</Password>
    <Address>10 Weizmann St, Kfar Saba, Israel</Address>
    <Latitude>32.1773</Latitude>
    <Longitude>34.9065</Longitude>
    <Active>true</Active>
    <MaximumDistance>2</MaximumDistance>
    <Role>Volunteer</Role>
    <Type>Aerial</Type>
  </Volunteer>
  <Volunteer>
    <Id>495434581</Id>
    <Name>Yael Ben-David</Name>
    <Phone>0528646440</Phone>
    <Mail>yaelben-david@gmail.com</Mail>
    <Password>jF2{@PJy</Password>
    <Address>45 Allenby St, Tel Aviv, Israel</Address>
    <Latitude>32.0614</Latitude>
    <Longitude>34.7706</Longitude>
    <Active>true</Active>
    <MaximumDistance>1</MaximumDistance>
    <Role>Volunteer</Role>
    <Type>Aerial</Type>
  </Volunteer>
  <Volunteer>
    <Id>469354955</Id>
    <Name>Eitan Sade</Name>
    <Phone>0504799421</Phone>
    <Mail>eitansade@gmail.com</Mail>
    <Password>cS4,^uWt</Password>
    <Address>1 Rothschild Blvd, Tel Aviv, Israel</Address>
    <Latitude>32.0624</Latitude>
    <Longitude>34.7719</Longitude>
    <Active>true</Active>
    <MaximumDistance>1</MaximumDistance>
    <Role>Volunteer</Role>
    <Type>Aerial</Type>
  </Volunteer>
  <Volunteer>
    <Id>958220659</Id>
    <Name>Shira Hadad</Name>
    <Phone>0541471063</Phone>
    <Mail>shirahadad@gmail.com</Mail>
    <Password>bP5$mp"i</Password>
    <Address>22 Derech HaShalom, Givatayim, Israel</Address>
    <Latitude>32.0697</Latitude>
    <Longitude>34.8106</Longitude>
    <Active>true</Active>
    <MaximumDistance>6</MaximumDistance>
    <Role>Volunteer</Role>
    <Type>Aerial</Type>
  </Volunteer>
  <Volunteer>
    <Id>101987832</Id>
    <Name>Lior Oren</Name>
    <Phone>0589704818</Phone>
    <Mail>liororen@gmail.com</Mail>
    <Password>aX2)$Sf*</Password>
    <Address>8 HaMelacha St, Netanya, Israel</Address>
    <Latitude>32.322</Latitude>
    <Longitude>34.8576</Longitude>
    <Active>false</Active>
    <MaximumDistance>6</MaximumDistance>
    <Role>Volunteer</Role>
    <Type>Aerial</Type>
  </Volunteer>
  <Volunteer>
    <Id>337409866</Id>
    <Name>Roni Peretz</Name>
    <Phone>0507069914</Phone>
    <Mail>roniperetz@gmail.com</Mail>
    <Password>hJ9|YEU$</Password>
    <Address>55 HaAtzmaut Blvd, Bat Yam, Israel</Address>
    <Latitude>32.0171</Latitude>
    <Longitude>34.7518</Longitude>
    <Active>false</Active>
    <MaximumDistance>6</MaximumDistance>
    <Role>Volunteer</Role>
    <Type>Aerial</Type>
  </Volunteer>
  <Volunteer>
    <Id>465231546</Id>
    <Name>Yaakov Azulay</Name>
    <Phone>0541415577</Phone>
    <Mail>yaakovazulay@gmail.com</Mail>
    <Password>zE6)4OwF</Password>
    <Address>12 Shaul HaMelech Blvd, Tel Aviv, Israel</Address>
    <Latitude>32.0736</Latitude>
    <Longitude>34.7822</Longitude>
    <Active>false</Active>
    <MaximumDistance>4</MaximumDistance>
    <Role>Volunteer</Role>
    <Type>Aerial</Type>
  </Volunteer>
  <Volunteer>
    <Id>219857232</Id>
    <Name>Eden Dayan</Name>
    <Phone>0533012535</Phone>
    <Mail>edendayan@gmail.com</Mail>
    <Password>zR6!Gyjv</Password>
    <Address>7 Keren Hayesod St, Jerusalem, Israel</Address>
    <Latitude>31.7768</Latitude>
    <Longitude>35.2201</Longitude>
    <Active>false</Active>
    <MaximumDistance>3</MaximumDistance>
    <Role>Volunteer</Role>
    <Type>Aerial</Type>
  </Volunteer>
  <Volunteer>
    <Id>189889447</Id>
    <Name>Talia Mor</Name>
    <Phone>0501983635</Phone>
    <Mail>taliamor@gmail.com</Mail>
    <Password>kP8{KXy^</Password>
    <Address>3 Begin Rd, Ramat Gan, Israel</Address>
    <Latitude>32.0732</Latitude>
    <Longitude>34.8123</Longitude>
    <Active>false</Active>
    <MaximumDistance>5</MaximumDistance>
    <Role>Volunteer</Role>
    <Type>Aerial</Type>
  </Volunteer>
</ArrayOfVolunteer>