<?xml version="1.0" encoding="utf-8"?>
<ArrayOfVolunteer xmlns:xsi="http://www.w3.org/2001/XMLSchema-instance" xmlns:xsd="http://www.w3.org/2001/XMLSchema">
  <Volunteer>
    <Id>356884007</Id>
    <Name>Amit Cohen</Name>
    <Phone>0552575563</Phone>
    <Mail>amitcohen@gmail.com</Mail>
    <Password>mE2$iA)s</Password>
    <Address>Herzl St 10, Tel Aviv, 6523701</Address>
    <Latitude>32.066158</Latitude>
    <Longitude>34.779808</Longitude>
    <Active>true</Active>
    <MaximumDistance>4</MaximumDistance>
    <Role>Manager</Role>
    <Type>Aerial</Type>
  </Volunteer>
  <Volunteer>
    <Id>197192420</Id>
    <Name>Noa Levi</Name>
    <Phone>0508654550</Phone>
    <Mail>noalevi@gmail.com</Mail>
    <Password>zG8%MVb|</Password>
    <Address>Ben Gurion St 5, Ramat Gan, 5222002</Address>
    <Latitude>32.082271</Latitude>
    <Longitude>34.812548</Longitude>
    <Active>true</Active>
    <MaximumDistance>6</MaximumDistance>
    <Role>Volunteer</Role>
    <Type>Aerial</Type>
  </Volunteer>
  <Volunteer>
    <Id>999747959</Id>
    <Name>Yonatan Mizrahi</Name>
    <Phone>0504000467</Phone>
    <Mail>yonatanmizrahi@gmail.com</Mail>
    <Password>eG0*10DO</Password>
    <Address>Dizengoff St 25, Tel Aviv, 6311701</Address>
    <Latitude>32.08048</Latitude>
    <Longitude>34.774989</Longitude>
    <Active>true</Active>
    <MaximumDistance>6</MaximumDistance>
    <Role>Volunteer</Role>
    <Type>Aerial</Type>
  </Volunteer>
  <Volunteer>
    <Id>172753444</Id>
    <Name>Maya Azulay</Name>
    <Phone>0523957874</Phone>
    <Mail>mayaazulay@gmail.com</Mail>
    <Password>sN1?B@"7</Password>
    <Address>Allenby St 40, Haifa, 3313302</Address>
    <Latitude>32.818409</Latitude>
    <Longitude>34.988507</Longitude>
    <Active>true</Active>
    <MaximumDistance>2</MaximumDistance>
    <Role>Volunteer</Role>
    <Type>Aerial</Type>
  </Volunteer>
  <Volunteer>
    <Id>349034017</Id>
    <Name>Daniel Gold</Name>
    <Phone>0539174661</Phone>
    <Mail>danielgold@gmail.com</Mail>
    <Password>tH0)o#Zn</Password>
    <Address>Jaffa St 60, Jerusalem, 9434101</Address>
    <Latitude>31.784217</Latitude>
    <Longitude>35.223391</Longitude>
    <Active>true</Active>
    <MaximumDistance>1</MaximumDistance>
    <Role>Volunteer</Role>
    <Type>Aerial</Type>
  </Volunteer>
  <Volunteer>
    <Id>914151717</Id>
    <Name>Hila Shalom</Name>
    <Phone>0583531581</Phone>
    <Mail>hilashalom@gmail.com</Mail>
    <Password>iX3|Y4lZ</Password>
    <Address>Rothschild Blvd 16, Tel Aviv, 6688112</Address>
    <Latitude>32.063922</Latitude>
    <Longitude>34.771805</Longitude>
    <Active>true</Active>
    <MaximumDistance>6</MaximumDistance>
    <Role>Volunteer</Role>
    <Type>Aerial</Type>
  </Volunteer>
  <Volunteer>
    <Id>739492866</Id>
    <Name>Tomer Kaplan</Name>
    <Phone>0503799695</Phone>
    <Mail>tomerkaplan@gmail.com</Mail>
    <Password>cV1}i65}</Password>
    <Address>Weizmann St 12, Kfar Saba, 4428104</Address>
    <Latitude>32.175034</Latitude>
    <Longitude>34.906552</Longitude>
    <Active>true</Active>
    <MaximumDistance>9</MaximumDistance>
    <Role>Volunteer</Role>
    <Type>Aerial</Type>
  </Volunteer>
  <Volunteer>
    <Id>378461362</Id>
    <Name>Yael Ben-David</Name>
    <Phone>0545095666</Phone>
    <Mail>yaelben-david@gmail.com</Mail>
    <Password>fY4"^E@O</Password>
    <Address>HaNasi St 8, Herzliya, 4650403</Address>
    <Latitude>32.166313</Latitude>
    <Longitude>34.842972</Longitude>
    <Active>true</Active>
    <MaximumDistance>9</MaximumDistance>
    <Role>Volunteer</Role>
    <Type>Aerial</Type>
  </Volunteer>
  <Volunteer>
    <Id>714949336</Id>
    <Name>Eitan Sade</Name>
    <Phone>0555880352</Phone>
    <Mail>eitansade@gmail.com</Mail>
    <Password>kH1^{89^</Password>
    <Address>Sokolov St 30, Holon, 5831801</Address>
    <Latitude>32.014046</Latitude>
    <Longitude>34.772101</Longitude>
    <Active>true</Active>
    <MaximumDistance>3</MaximumDistance>
    <Role>Volunteer</Role>
    <Type>Aerial</Type>
  </Volunteer>
  <Volunteer>
    <Id>941041964</Id>
    <Name>Shira Hadad</Name>
    <Phone>0556603651</Phone>
    <Mail>shirahadad@gmail.com</Mail>
    <Password>nP7){Fh^</Password>
    <Address>Ben Yehuda St 100, Tel Aviv, 6347511</Address>
    <Latitude>32.089771</Latitude>
    <Longitude>34.773922</Longitude>
    <Active>true</Active>
    <MaximumDistance>7</MaximumDistance>
    <Role>Volunteer</Role>
    <Type>Aerial</Type>
  </Volunteer>
  <Volunteer>
    <Id>952252666</Id>
    <Name>Lior Oren</Name>
    <Phone>0583995361</Phone>
    <Mail>liororen@gmail.com</Mail>
    <Password>uG5{(Sn}</Password>
    <Address>Ehad HaAm St 50, Beersheba, 8455802</Address>
    <Latitude>31.25181</Latitude>
    <Longitude>34.79146</Longitude>
    <Active>false</Active>
    <MaximumDistance>1</MaximumDistance>
    <Role>Volunteer</Role>
    <Type>Aerial</Type>
  </Volunteer>
  <Volunteer>
    <Id>395005317</Id>
    <Name>Roni Peretz</Name>
    <Phone>0531415866</Phone>
    <Mail>roniperetz@gmail.com</Mail>
    <Password>iH3!QizZ</Password>
    <Address>Herzliya St 15, Netanya, 4241102</Address>
    <Latitude>32.328516</Latitude>
    <Longitude>34.853196</Longitude>
    <Active>false</Active>
    <MaximumDistance>2</MaximumDistance>
    <Role>Volunteer</Role>
    <Type>Aerial</Type>
  </Volunteer>
  <Volunteer>
    <Id>804984748</Id>
    <Name>Yaakov Azulay</Name>
    <Phone>0587177024</Phone>
    <Mail>yaakovazulay@gmail.com</Mail>
    <Password>iI8|4bC4</Password>
    <Address>Keren HaYesod St 22, Ashdod, 7728203</Address>
    <Latitude>31.802418</Latitude>
    <Longitude>34.641665</Longitude>
    <Active>false</Active>
    <MaximumDistance>9</MaximumDistance>
    <Role>Volunteer</Role>
    <Type>Aerial</Type>
  </Volunteer>
  <Volunteer>
    <Id>547118133</Id>
    <Name>Eden Dayan</Name>
    <Phone>0554241428</Phone>
    <Mail>edendayan@gmail.com</Mail>
    <Password>bJ6.mWj(</Password>
    <Address>Herzl St 45, Rishon LeZion, 7522001</Address>
    <Latitude>31.969633</Latitude>
    <Longitude>34.80439</Longitude>
    <Active>false</Active>
    <MaximumDistance>2</MaximumDistance>
    <Role>Volunteer</Role>
    <Type>Aerial</Type>
  </Volunteer>
  <Volunteer>
    <Id>823693239</Id>
    <Name>Talia Mor</Name>
    <Phone>0582547616</Phone>
    <Mail>taliamor@gmail.com</Mail>
    <Password>dQ6)H%4z</Password>
    <Address>Moshe Dayan St 3, Ashkelon, 7878203</Address>
    <Latitude>31.669258</Latitude>
    <Longitude>34.574262</Longitude>
    <Active>false</Active>
    <MaximumDistance>7</MaximumDistance>
    <Role>Volunteer</Role>
    <Type>Aerial</Type>
  </Volunteer>
  <Volunteer>
    <Id>112533245</Id>
    <Name>Amit Cohen</Name>
    <Phone>0538595347</Phone>
    <Mail>amitcohen@gmail.com</Mail>
    <Password>jK2{!%W7</Password>
    <Address>Herzl St 10, Tel Aviv, 6523701</Address>
    <Latitude>31.797499</Latitude>
    <Longitude>34.645104</Longitude>
    <Active>true</Active>
    <MaximumDistance>4</MaximumDistance>
    <Role>Manager</Role>
    <Type>Car</Type>
  </Volunteer>
  <Volunteer>
    <Id>916302797</Id>
    <Name>Shira Hadad</Name>
    <Phone>0505293517</Phone>
    <Mail>shirahadad@gmail.com</Mail>
    <Password>dQ5#Yn#b</Password>
    <Address>Ben Yehuda St 100, Tel Aviv, 6347511</Address>
    <Latitude>32.087066</Latitude>
    <Longitude>34.773227</Longitude>
    <Active>true</Active>
    <MaximumDistance>1</MaximumDistance>
    <Role>Volunteer</Role>
    <Type>Walking</Type>
  </Volunteer>
  <Volunteer>
    <Id>108617234</Id>
    <Name>Roni Peretz</Name>
    <Phone>0544188027</Phone>
    <Mail>roniperetz@gmail.com</Mail>
    <Password>oR4)moIa</Password>
    <Address>Herzliya St 15, Netanya, 4241102</Address>
    <Latitude>32.061606</Latitude>
    <Longitude>34.766415</Longitude>
    <Active>false</Active>
    <MaximumDistance>2</MaximumDistance>
    <Role>Volunteer</Role>
    <Type>Aerial</Type>
  </Volunteer>
</ArrayOfVolunteer>