<?xml version="1.0" encoding="utf-8"?>
<ArrayOfVolunteer xmlns:xsi="http://www.w3.org/2001/XMLSchema-instance" xmlns:xsd="http://www.w3.org/2001/XMLSchema">
  <Volunteer>
    <Id>348158081</Id>
    <Name>Amit Cohen</Name>
    <Phone>0508468133</Phone>
    <Mail>amitcohen@gmail.com</Mail>
    <Password>MOAFCU7</Password>
    <Address>Herzl St 10, Tel Aviv, 6523701</Address>
    <Latitude>32.066158</Latitude>
    <Longitude>34.779808</Longitude>
    <Active>true</Active>
    <MaximumDistance>4</MaximumDistance>
    <Role>Manager</Role>
    <Type>Aerial</Type>
  </Volunteer>
  <Volunteer>
    <Id>222684629</Id>
    <Name>Noa Levi</Name>
    <Phone>0531690370</Phone>
    <Mail>noalevi@gmail.com</Mail>
    <Password>j8g7M9l</Password>
    <Address>Ben Gurion St 5, Ramat Gan, 5222002</Address>
    <Latitude>32.082271</Latitude>
    <Longitude>34.812548</Longitude>
    <Active>true</Active>
    <MaximumDistance>7</MaximumDistance>
    <Role>Volunteer</Role>
    <Type>Aerial</Type>
  </Volunteer>
  <Volunteer>
    <Id>313991493</Id>
    <Name>Yonatan Mizrahi</Name>
    <Phone>0583454093</Phone>
    <Mail>yonatanmizrahi@gmail.com</Mail>
    <Password>vvVBAEy</Password>
    <Address>Dizengoff St 25, Tel Aviv, 6311701</Address>
    <Latitude>32.08048</Latitude>
    <Longitude>34.774989</Longitude>
    <Active>true</Active>
    <MaximumDistance>0</MaximumDistance>
    <Role>Volunteer</Role>
    <Type>Aerial</Type>
  </Volunteer>
  <Volunteer>
    <Id>371998495</Id>
    <Name>Maya Azulay</Name>
    <Phone>0559131158</Phone>
    <Mail>mayaazulay@gmail.com</Mail>
    <Password>lftXvJb</Password>
    <Address>Allenby St 40, Haifa, 3313302</Address>
    <Latitude>32.818409</Latitude>
    <Longitude>34.988507</Longitude>
    <Active>true</Active>
    <MaximumDistance>7</MaximumDistance>
    <Role>Volunteer</Role>
    <Type>Aerial</Type>
  </Volunteer>
  <Volunteer>
    <Id>338323419</Id>
    <Name>Daniel Gold</Name>
    <Phone>0504031857</Phone>
    <Mail>danielgold@gmail.com</Mail>
    <Password>NTmDMoU</Password>
    <Address>Jaffa St 60, Jerusalem, 9434101</Address>
    <Latitude>31.784217</Latitude>
    <Longitude>35.223391</Longitude>
    <Active>true</Active>
    <MaximumDistance>6</MaximumDistance>
    <Role>Volunteer</Role>
    <Type>Aerial</Type>
  </Volunteer>
  <Volunteer>
    <Id>349473719</Id>
    <Name>Hila Shalom</Name>
    <Phone>0539881040</Phone>
    <Mail>hilashalom@gmail.com</Mail>
    <Password>mgoPMFe</Password>
    <Address>Rothschild Blvd 16, Tel Aviv, 6688112</Address>
    <Latitude>32.063922</Latitude>
    <Longitude>34.771805</Longitude>
    <Active>true</Active>
    <MaximumDistance>7</MaximumDistance>
    <Role>Volunteer</Role>
    <Type>Aerial</Type>
  </Volunteer>
  <Volunteer>
    <Id>343955241</Id>
    <Name>Tomer Kaplan</Name>
    <Phone>0557812738</Phone>
    <Mail>tomerkaplan@gmail.com</Mail>
    <Password>oWse2PB</Password>
    <Address>Weizmann St 12, Kfar Saba, 4428104</Address>
    <Latitude>32.175034</Latitude>
    <Longitude>34.906552</Longitude>
    <Active>true</Active>
    <MaximumDistance>5</MaximumDistance>
    <Role>Volunteer</Role>
    <Type>Aerial</Type>
  </Volunteer>
  <Volunteer>
    <Id>201486479</Id>
    <Name>Yael Ben-David</Name>
    <Phone>0543192281</Phone>
    <Mail>yaelben-david@gmail.com</Mail>
    <Password>nvCKKuO</Password>
    <Address>HaNasi St 8, Herzliya, 4650403</Address>
    <Latitude>32.166313</Latitude>
    <Longitude>34.842972</Longitude>
    <Active>true</Active>
    <MaximumDistance>1</MaximumDistance>
    <Role>Volunteer</Role>
    <Type>Aerial</Type>
  </Volunteer>
  <Volunteer>
    <Id>376313037</Id>
    <Name>Eitan Sade</Name>
    <Phone>0520599655</Phone>
    <Mail>eitansade@gmail.com</Mail>
    <Password>JwCW1Qs</Password>
    <Address>Sokolov St 30, Holon, 5831801</Address>
    <Latitude>32.014046</Latitude>
    <Longitude>34.772101</Longitude>
    <Active>true</Active>
    <MaximumDistance>4</MaximumDistance>
    <Role>Volunteer</Role>
    <Type>Aerial</Type>
  </Volunteer>
  <Volunteer>
    <Id>340580965</Id>
    <Name>Shira Hadad</Name>
    <Phone>0540029741</Phone>
    <Mail>shirahadad@gmail.com</Mail>
    <Password>tTIoMrf</Password>
    <Address>Ben Yehuda St 100, Tel Aviv, 6347511</Address>
    <Latitude>32.089771</Latitude>
    <Longitude>34.773922</Longitude>
    <Active>true</Active>
    <MaximumDistance>7</MaximumDistance>
    <Role>Volunteer</Role>
    <Type>Aerial</Type>
  </Volunteer>
  <Volunteer>
    <Id>333935815</Id>
    <Name>Lior Oren</Name>
    <Phone>0534383919</Phone>
    <Mail>liororen@gmail.com</Mail>
    <Password>ny6S7bH</Password>
    <Address>Ehad HaAm St 50, Beersheba, 8455802</Address>
    <Latitude>31.25181</Latitude>
    <Longitude>34.79146</Longitude>
    <Active>false</Active>
    <MaximumDistance>0</MaximumDistance>
    <Role>Volunteer</Role>
    <Type>Aerial</Type>
  </Volunteer>
  <Volunteer>
    <Id>384667354</Id>
    <Name>Roni Peretz</Name>
    <Phone>0552598995</Phone>
    <Mail>roniperetz@gmail.com</Mail>
    <Password>CNpP3mP</Password>
    <Address>Herzliya St 15, Netanya, 4241102</Address>
    <Latitude>32.328516</Latitude>
    <Longitude>34.853196</Longitude>
    <Active>false</Active>
    <MaximumDistance>0</MaximumDistance>
    <Role>Volunteer</Role>
    <Type>Aerial</Type>
  </Volunteer>
  <Volunteer>
    <Id>260388696</Id>
    <Name>Yaakov Azulay</Name>
    <Phone>0558469396</Phone>
    <Mail>yaakovazulay@gmail.com</Mail>
    <Password>hOq9ADG</Password>
    <Address>Keren HaYesod St 22, Ashdod, 7728203</Address>
    <Latitude>31.802418</Latitude>
    <Longitude>34.641665</Longitude>
    <Active>false</Active>
    <MaximumDistance>8</MaximumDistance>
    <Role>Volunteer</Role>
    <Type>Aerial</Type>
  </Volunteer>
  <Volunteer>
    <Id>223586402</Id>
    <Name>Eden Dayan</Name>
    <Phone>0509183133</Phone>
    <Mail>edendayan@gmail.com</Mail>
    <Password>aMBOfVx</Password>
    <Address>Herzl St 45, Rishon LeZion, 7522001</Address>
    <Latitude>31.969633</Latitude>
    <Longitude>34.80439</Longitude>
    <Active>false</Active>
    <MaximumDistance>7</MaximumDistance>
    <Role>Volunteer</Role>
    <Type>Aerial</Type>
  </Volunteer>
  <Volunteer>
    <Id>312351643</Id>
    <Name>Talia Mor</Name>
    <Phone>0540009031</Phone>
    <Mail>taliamor@gmail.com</Mail>
    <Password>LQnx2mo</Password>
    <Address>Moshe Dayan St 3, Ashkelon, 7878203</Address>
    <Latitude>31.669258</Latitude>
    <Longitude>34.574262</Longitude>
    <Active>false</Active>
    <MaximumDistance>8</MaximumDistance>
    <Role>Volunteer</Role>
    <Type>Aerial</Type>
  </Volunteer>
</ArrayOfVolunteer>