<?xml version="1.0" encoding="utf-8"?>
<ArrayOfVolunteer xmlns:xsi="http://www.w3.org/2001/XMLSchema-instance" xmlns:xsd="http://www.w3.org/2001/XMLSchema">
  <Volunteer>
    <Id>281204650</Id>
    <Name>Amit Cohen</Name>
    <Phone>0546820382</Phone>
    <Mail>amitcohen@gmail.com</Mail>
    <Password>LUltrJb</Password>
    <Address>Herzl St 10, Tel Aviv, 6523701</Address>
    <Latitude>32.066158</Latitude>
    <Longitude>34.779808</Longitude>
    <Active>true</Active>
    <MaximumDistance>3</MaximumDistance>
    <Role>Manager</Role>
    <Type>Aerial</Type>
  </Volunteer>
  <Volunteer>
    <Id>355353234</Id>
    <Name>Noa Levi</Name>
    <Phone>0546194765</Phone>
    <Mail>noalevi@gmail.com</Mail>
    <Password>IcbW0P7</Password>
    <Address>Ben Gurion St 5, Ramat Gan, 5222002</Address>
    <Latitude>32.082271</Latitude>
    <Longitude>34.812548</Longitude>
    <Active>true</Active>
    <MaximumDistance>6</MaximumDistance>
    <Role>Volunteer</Role>
    <Type>Aerial</Type>
  </Volunteer>
  <Volunteer>
    <Id>286251870</Id>
    <Name>Yonatan Mizrahi</Name>
    <Phone>0537635072</Phone>
    <Mail>yonatanmizrahi@gmail.com</Mail>
    <Password>nBVQlwd</Password>
    <Address>Dizengoff St 25, Tel Aviv, 6311701</Address>
    <Latitude>32.08048</Latitude>
    <Longitude>34.774989</Longitude>
    <Active>true</Active>
    <MaximumDistance>2</MaximumDistance>
    <Role>Volunteer</Role>
    <Type>Aerial</Type>
  </Volunteer>
  <Volunteer>
    <Id>308135139</Id>
    <Name>Maya Azulay</Name>
    <Phone>0557118870</Phone>
    <Mail>mayaazulay@gmail.com</Mail>
    <Password>u4aYJZb</Password>
    <Address>Allenby St 40, Haifa, 3313302</Address>
    <Latitude>32.818409</Latitude>
    <Longitude>34.988507</Longitude>
    <Active>true</Active>
    <MaximumDistance>7</MaximumDistance>
    <Role>Volunteer</Role>
    <Type>Aerial</Type>
  </Volunteer>
  <Volunteer>
    <Id>322643346</Id>
    <Name>Daniel Gold</Name>
    <Phone>0550361120</Phone>
    <Mail>danielgold@gmail.com</Mail>
    <Password>qcjCmMB</Password>
    <Address>Jaffa St 60, Jerusalem, 9434101</Address>
    <Latitude>31.784217</Latitude>
    <Longitude>35.223391</Longitude>
    <Active>true</Active>
    <MaximumDistance>1</MaximumDistance>
    <Role>Volunteer</Role>
    <Type>Aerial</Type>
  </Volunteer>
  <Volunteer>
    <Id>361219146</Id>
    <Name>Hila Shalom</Name>
    <Phone>0526975989</Phone>
    <Mail>hilashalom@gmail.com</Mail>
    <Password>8f1nCpz</Password>
    <Address>Rothschild Blvd 16, Tel Aviv, 6688112</Address>
    <Latitude>32.063922</Latitude>
    <Longitude>34.771805</Longitude>
    <Active>true</Active>
    <MaximumDistance>1</MaximumDistance>
    <Role>Volunteer</Role>
    <Type>Aerial</Type>
  </Volunteer>
  <Volunteer>
    <Id>366389690</Id>
    <Name>Tomer Kaplan</Name>
    <Phone>0557427062</Phone>
    <Mail>tomerkaplan@gmail.com</Mail>
    <Password>JzFQlst</Password>
    <Address>Weizmann St 12, Kfar Saba, 4428104</Address>
    <Latitude>32.175034</Latitude>
    <Longitude>34.906552</Longitude>
    <Active>true</Active>
    <MaximumDistance>1</MaximumDistance>
    <Role>Volunteer</Role>
    <Type>Aerial</Type>
  </Volunteer>
  <Volunteer>
    <Id>371423262</Id>
    <Name>Yael Ben-David</Name>
    <Phone>0506387394</Phone>
    <Mail>yaelben-david@gmail.com</Mail>
    <Password>F9sbBnI</Password>
    <Address>HaNasi St 8, Herzliya, 4650403</Address>
    <Latitude>32.166313</Latitude>
    <Longitude>34.842972</Longitude>
    <Active>true</Active>
    <MaximumDistance>7</MaximumDistance>
    <Role>Volunteer</Role>
    <Type>Aerial</Type>
  </Volunteer>
  <Volunteer>
    <Id>297302083</Id>
    <Name>Eitan Sade</Name>
    <Phone>0556772461</Phone>
    <Mail>eitansade@gmail.com</Mail>
    <Password>n3yER57</Password>
    <Address>Sokolov St 30, Holon, 5831801</Address>
    <Latitude>32.014046</Latitude>
    <Longitude>34.772101</Longitude>
    <Active>true</Active>
    <MaximumDistance>5</MaximumDistance>
    <Role>Volunteer</Role>
    <Type>Aerial</Type>
  </Volunteer>
  <Volunteer>
    <Id>300493336</Id>
    <Name>Shira Hadad</Name>
    <Phone>0533990718</Phone>
    <Mail>shirahadad@gmail.com</Mail>
    <Password>bH0VpG4</Password>
    <Address>Ben Yehuda St 100, Tel Aviv, 6347511</Address>
    <Latitude>32.089771</Latitude>
    <Longitude>34.773922</Longitude>
    <Active>true</Active>
    <MaximumDistance>5</MaximumDistance>
    <Role>Volunteer</Role>
    <Type>Aerial</Type>
  </Volunteer>
  <Volunteer>
    <Id>292642842</Id>
    <Name>Lior Oren</Name>
    <Phone>0585666006</Phone>
    <Mail>liororen@gmail.com</Mail>
    <Password>5AxO5MH</Password>
    <Address>Ehad HaAm St 50, Beersheba, 8455802</Address>
    <Latitude>31.25181</Latitude>
    <Longitude>34.79146</Longitude>
    <Active>false</Active>
    <MaximumDistance>4</MaximumDistance>
    <Role>Volunteer</Role>
    <Type>Aerial</Type>
  </Volunteer>
  <Volunteer>
    <Id>239520821</Id>
    <Name>Roni Peretz</Name>
    <Phone>0539205825</Phone>
    <Mail>roniperetz@gmail.com</Mail>
    <Password>jRGseRG</Password>
    <Address>Herzliya St 15, Netanya, 4241102</Address>
    <Latitude>32.328516</Latitude>
    <Longitude>34.853196</Longitude>
    <Active>false</Active>
    <MaximumDistance>0</MaximumDistance>
    <Role>Volunteer</Role>
    <Type>Aerial</Type>
  </Volunteer>
  <Volunteer>
    <Id>267276122</Id>
    <Name>Yaakov Azulay</Name>
    <Phone>0548668253</Phone>
    <Mail>yaakovazulay@gmail.com</Mail>
    <Password>HKKyfDS</Password>
    <Address>Keren HaYesod St 22, Ashdod, 7728203</Address>
    <Latitude>31.802418</Latitude>
    <Longitude>34.641665</Longitude>
    <Active>false</Active>
    <MaximumDistance>0</MaximumDistance>
    <Role>Volunteer</Role>
    <Type>Aerial</Type>
  </Volunteer>
  <Volunteer>
    <Id>265481706</Id>
    <Name>Eden Dayan</Name>
    <Phone>0536826459</Phone>
    <Mail>edendayan@gmail.com</Mail>
    <Password>ALblAPD</Password>
    <Address>Herzl St 45, Rishon LeZion, 7522001</Address>
    <Latitude>31.969633</Latitude>
    <Longitude>34.80439</Longitude>
    <Active>false</Active>
    <MaximumDistance>6</MaximumDistance>
    <Role>Volunteer</Role>
    <Type>Aerial</Type>
  </Volunteer>
  <Volunteer>
    <Id>305047359</Id>
    <Name>Talia Mor</Name>
    <Phone>0524523851</Phone>
    <Mail>taliamor@gmail.com</Mail>
    <Password>TZrpC6P</Password>
    <Address>Moshe Dayan St 3, Ashkelon, 7878203</Address>
    <Latitude>31.669258</Latitude>
    <Longitude>34.574262</Longitude>
    <Active>false</Active>
    <MaximumDistance>1</MaximumDistance>
    <Role>Volunteer</Role>
    <Type>Aerial</Type>
  </Volunteer>
  <Volunteer>
    <Id>213899412</Id>
    <Name>hila</Name>
    <Phone>0509931822</Phone>
    <Mail>hila@gmail.com</Mail>
    <Password>Hh999ww!!</Password>
    <Address>Ben Gurion St 5, Ramat Gan, 5222002</Address>
    <Latitude>32.05636</Latitude>
    <Longitude>34.835025</Longitude>
    <Active>true</Active>
    <MaximumDistance>4</MaximumDistance>
    <Role>Volunteer</Role>
    <Type>Walking</Type>
  </Volunteer>
</ArrayOfVolunteer>