<?xml version="1.0" encoding="utf-8"?>
<ArrayOfVolunteer xmlns:xsi="http://www.w3.org/2001/XMLSchema-instance" xmlns:xsd="http://www.w3.org/2001/XMLSchema">
  <Volunteer>
    <Id>330824809</Id>
    <Name>Amit Cohen</Name>
    <Phone>0542311492</Phone>
    <Mail>amitcohen@gmail.com</Mail>
    <Password>V9y0aLo</Password>
    <Address>Herzl St 10, Tel Aviv, 6523701</Address>
    <Latitude>32.066158</Latitude>
    <Longitude>34.779808</Longitude>
    <Active>false</Active>
    <MaximumDistance>1</MaximumDistance>
    <Role>Management</Role>
    <Type>Aerial</Type>
  </Volunteer>
  <Volunteer>
    <Id>319432674</Id>
    <Name>Noa Levi</Name>
    <Phone>0552489196</Phone>
    <Mail>noalevi@gmail.com</Mail>
    <Password>ADt1Q1F</Password>
    <Address>Ben Gurion St 5, Ramat Gan, 5222002</Address>
    <Latitude>32.082271</Latitude>
    <Longitude>34.812548</Longitude>
    <Active>false</Active>
    <MaximumDistance>8</MaximumDistance>
    <Role>Volunteer</Role>
    <Type>Aerial</Type>
  </Volunteer>
  <Volunteer>
    <Id>249131267</Id>
    <Name>Yonatan Mizrahi</Name>
    <Phone>0529400437</Phone>
    <Mail>yonatanmizrahi@gmail.com</Mail>
    <Password>2JJHwtJ</Password>
    <Address>Dizengoff St 25, Tel Aviv, 6311701</Address>
    <Latitude>32.08048</Latitude>
    <Longitude>34.774989</Longitude>
    <Active>false</Active>
    <MaximumDistance>8</MaximumDistance>
    <Role>Volunteer</Role>
    <Type>Aerial</Type>
  </Volunteer>
  <Volunteer>
    <Id>287917577</Id>
    <Name>Maya Azulay</Name>
    <Phone>0543446808</Phone>
    <Mail>mayaazulay@gmail.com</Mail>
    <Password>AiggLNH</Password>
    <Address>Allenby St 40, Haifa, 3313302</Address>
    <Latitude>32.818409</Latitude>
    <Longitude>34.988507</Longitude>
    <Active>false</Active>
    <MaximumDistance>5</MaximumDistance>
    <Role>Volunteer</Role>
    <Type>Aerial</Type>
  </Volunteer>
  <Volunteer>
    <Id>268464491</Id>
    <Name>Daniel Gold</Name>
    <Phone>0582140193</Phone>
    <Mail>danielgold@gmail.com</Mail>
    <Password>vCF8bM7</Password>
    <Address>Jaffa St 60, Jerusalem, 9434101</Address>
    <Latitude>31.784217</Latitude>
    <Longitude>35.223391</Longitude>
    <Active>false</Active>
    <MaximumDistance>5</MaximumDistance>
    <Role>Volunteer</Role>
    <Type>Aerial</Type>
  </Volunteer>
  <Volunteer>
    <Id>264392282</Id>
    <Name>Hila Shalom</Name>
    <Phone>0584671809</Phone>
    <Mail>hilashalom@gmail.com</Mail>
    <Password>TtS10QJ</Password>
    <Address>Rothschild Blvd 16, Tel Aviv, 6688112</Address>
    <Latitude>32.063922</Latitude>
    <Longitude>34.771805</Longitude>
    <Active>false</Active>
    <MaximumDistance>5</MaximumDistance>
    <Role>Volunteer</Role>
    <Type>Aerial</Type>
  </Volunteer>
  <Volunteer>
    <Id>364447452</Id>
    <Name>Tomer Kaplan</Name>
    <Phone>0588177076</Phone>
    <Mail>tomerkaplan@gmail.com</Mail>
    <Password>wQjPvq6</Password>
    <Address>Weizmann St 12, Kfar Saba, 4428104</Address>
    <Latitude>32.175034</Latitude>
    <Longitude>34.906552</Longitude>
    <Active>false</Active>
    <MaximumDistance>5</MaximumDistance>
    <Role>Volunteer</Role>
    <Type>Aerial</Type>
  </Volunteer>
  <Volunteer>
    <Id>376453921</Id>
    <Name>Yael Ben-David</Name>
    <Phone>0529160682</Phone>
    <Mail>yaelben-david@gmail.com</Mail>
    <Password>Kfoj4Ww</Password>
    <Address>HaNasi St 8, Herzliya, 4650403</Address>
    <Latitude>32.166313</Latitude>
    <Longitude>34.842972</Longitude>
    <Active>false</Active>
    <MaximumDistance>4</MaximumDistance>
    <Role>Volunteer</Role>
    <Type>Aerial</Type>
  </Volunteer>
  <Volunteer>
    <Id>399614677</Id>
    <Name>Eitan Sade</Name>
    <Phone>0556766541</Phone>
    <Mail>eitansade@gmail.com</Mail>
    <Password>3TPiCjR</Password>
    <Address>Sokolov St 30, Holon, 5831801</Address>
    <Latitude>32.014046</Latitude>
    <Longitude>34.772101</Longitude>
    <Active>false</Active>
    <MaximumDistance>2</MaximumDistance>
    <Role>Volunteer</Role>
    <Type>Aerial</Type>
  </Volunteer>
  <Volunteer>
    <Id>393187336</Id>
    <Name>Shira Hadad</Name>
    <Phone>0584902595</Phone>
    <Mail>shirahadad@gmail.com</Mail>
    <Password>TjeTJ5V</Password>
    <Address>Ben Yehuda St 100, Tel Aviv, 6347511</Address>
    <Latitude>32.089771</Latitude>
    <Longitude>34.773922</Longitude>
    <Active>false</Active>
    <MaximumDistance>8</MaximumDistance>
    <Role>Volunteer</Role>
    <Type>Aerial</Type>
  </Volunteer>
  <Volunteer>
    <Id>302939954</Id>
    <Name>Lior Oren</Name>
    <Phone>0552128869</Phone>
    <Mail>liororen@gmail.com</Mail>
    <Password>872OXsB</Password>
    <Address>Ehad HaAm St 50, Beersheba, 8455802</Address>
    <Latitude>31.25181</Latitude>
    <Longitude>34.79146</Longitude>
    <Active>false</Active>
    <MaximumDistance>2</MaximumDistance>
    <Role>Volunteer</Role>
    <Type>Aerial</Type>
  </Volunteer>
  <Volunteer>
    <Id>365691031</Id>
    <Name>Roni Peretz</Name>
    <Phone>0558475150</Phone>
    <Mail>roniperetz@gmail.com</Mail>
    <Password>0fPQ9HP</Password>
    <Address>Herzliya St 15, Netanya, 4241102</Address>
    <Latitude>32.328516</Latitude>
    <Longitude>34.853196</Longitude>
    <Active>false</Active>
    <MaximumDistance>4</MaximumDistance>
    <Role>Volunteer</Role>
    <Type>Aerial</Type>
  </Volunteer>
  <Volunteer>
    <Id>377331696</Id>
    <Name>Yaakov Azulay</Name>
    <Phone>0581244073</Phone>
    <Mail>yaakovazulay@gmail.com</Mail>
    <Password>kP9vPP8</Password>
    <Address>Keren HaYesod St 22, Ashdod, 7728203</Address>
    <Latitude>31.802418</Latitude>
    <Longitude>34.641665</Longitude>
    <Active>false</Active>
    <MaximumDistance>4</MaximumDistance>
    <Role>Volunteer</Role>
    <Type>Aerial</Type>
  </Volunteer>
  <Volunteer>
    <Id>366838483</Id>
    <Name>Eden Dayan</Name>
    <Phone>0535491414</Phone>
    <Mail>edendayan@gmail.com</Mail>
    <Password>hK93Ze7</Password>
    <Address>Herzl St 45, Rishon LeZion, 7522001</Address>
    <Latitude>31.969633</Latitude>
    <Longitude>34.80439</Longitude>
    <Active>false</Active>
    <MaximumDistance>8</MaximumDistance>
    <Role>Volunteer</Role>
    <Type>Aerial</Type>
  </Volunteer>
  <Volunteer>
    <Id>374542342</Id>
    <Name>Talia Mor</Name>
    <Phone>0546418932</Phone>
    <Mail>taliamor@gmail.com</Mail>
    <Password>lyqw2Fx</Password>
    <Address>Moshe Dayan St 3, Ashkelon, 7878203</Address>
    <Latitude>31.669258</Latitude>
    <Longitude>34.574262</Longitude>
    <Active>false</Active>
    <MaximumDistance>6</MaximumDistance>
    <Role>Volunteer</Role>
    <Type>Aerial</Type>
  </Volunteer>
</ArrayOfVolunteer>