<?xml version="1.0" encoding="utf-8"?>
<ArrayOfVolunteer xmlns:xsi="http://www.w3.org/2001/XMLSchema-instance" xmlns:xsd="http://www.w3.org/2001/XMLSchema">
  <Volunteer>
    <Id>208879831</Id>
    <Name>Amit Cohen</Name>
    <Phone>0541846767</Phone>
    <Mail>amitcohen@gmail.com</Mail>
    <Password>5c7PS9Q</Password>
    <Address>Herzl St 10, Tel Aviv, 6523701</Address>
    <Latitude>32.066158</Latitude>
    <Longitude>34.779808</Longitude>
    <Active>true</Active>
    <MaximumDistance>1</MaximumDistance>
    <Role>Manager</Role>
    <Type>Aerial</Type>
  </Volunteer>
  <Volunteer>
    <Id>344109899</Id>
    <Name>Noa Levi</Name>
    <Phone>0521955676</Phone>
    <Mail>noalevi@gmail.com</Mail>
    <Password>RtrNFLS</Password>
    <Address>Ben Gurion St 5, Ramat Gan, 5222002</Address>
    <Latitude>32.082271</Latitude>
    <Longitude>34.812548</Longitude>
    <Active>true</Active>
    <MaximumDistance>4</MaximumDistance>
    <Role>Volunteer</Role>
    <Type>Aerial</Type>
  </Volunteer>
  <Volunteer>
    <Id>322246269</Id>
    <Name>Yonatan Mizrahi</Name>
    <Phone>0589360789</Phone>
    <Mail>yonatanmizrahi@gmail.com</Mail>
    <Password>RE49AK3</Password>
    <Address>Dizengoff St 25, Tel Aviv, 6311701</Address>
    <Latitude>32.08048</Latitude>
    <Longitude>34.774989</Longitude>
    <Active>true</Active>
    <MaximumDistance>3</MaximumDistance>
    <Role>Volunteer</Role>
    <Type>Aerial</Type>
  </Volunteer>
  <Volunteer>
    <Id>272229173</Id>
    <Name>Maya Azulay</Name>
    <Phone>0520965101</Phone>
    <Mail>mayaazulay@gmail.com</Mail>
    <Password>3EJgYXq</Password>
    <Address>Allenby St 40, Haifa, 3313302</Address>
    <Latitude>32.818409</Latitude>
    <Longitude>34.988507</Longitude>
    <Active>true</Active>
    <MaximumDistance>8</MaximumDistance>
    <Role>Volunteer</Role>
    <Type>Aerial</Type>
  </Volunteer>
  <Volunteer>
    <Id>295685618</Id>
    <Name>Daniel Gold</Name>
    <Phone>0537324237</Phone>
    <Mail>danielgold@gmail.com</Mail>
    <Password>iGoWebB</Password>
    <Address>Jaffa St 60, Jerusalem, 9434101</Address>
    <Latitude>31.784217</Latitude>
    <Longitude>35.223391</Longitude>
    <Active>true</Active>
    <MaximumDistance>4</MaximumDistance>
    <Role>Volunteer</Role>
    <Type>Aerial</Type>
  </Volunteer>
  <Volunteer>
    <Id>210244765</Id>
    <Name>Hila Shalom</Name>
    <Phone>0546038491</Phone>
    <Mail>hilashalom@gmail.com</Mail>
    <Password>m92Sa3M</Password>
    <Address>Rothschild Blvd 16, Tel Aviv, 6688112</Address>
    <Latitude>32.063922</Latitude>
    <Longitude>34.771805</Longitude>
    <Active>true</Active>
    <MaximumDistance>8</MaximumDistance>
    <Role>Volunteer</Role>
    <Type>Aerial</Type>
  </Volunteer>
  <Volunteer>
    <Id>373802328</Id>
    <Name>Tomer Kaplan</Name>
    <Phone>0525485241</Phone>
    <Mail>tomerkaplan@gmail.com</Mail>
    <Password>n9URzD6</Password>
    <Address>Weizmann St 12, Kfar Saba, 4428104</Address>
    <Latitude>32.175034</Latitude>
    <Longitude>34.906552</Longitude>
    <Active>true</Active>
    <MaximumDistance>4</MaximumDistance>
    <Role>Volunteer</Role>
    <Type>Aerial</Type>
  </Volunteer>
  <Volunteer>
    <Id>269977642</Id>
    <Name>Yael Ben-David</Name>
    <Phone>0543710508</Phone>
    <Mail>yaelben-david@gmail.com</Mail>
    <Password>XfaA0qW</Password>
    <Address>HaNasi St 8, Herzliya, 4650403</Address>
    <Latitude>32.166313</Latitude>
    <Longitude>34.842972</Longitude>
    <Active>true</Active>
    <MaximumDistance>5</MaximumDistance>
    <Role>Volunteer</Role>
    <Type>Aerial</Type>
  </Volunteer>
  <Volunteer>
    <Id>353845986</Id>
    <Name>Eitan Sade</Name>
    <Phone>0504996228</Phone>
    <Mail>eitansade@gmail.com</Mail>
    <Password>X28YBZw</Password>
    <Address>Sokolov St 30, Holon, 5831801</Address>
    <Latitude>32.014046</Latitude>
    <Longitude>34.772101</Longitude>
    <Active>true</Active>
    <MaximumDistance>3</MaximumDistance>
    <Role>Volunteer</Role>
    <Type>Aerial</Type>
  </Volunteer>
  <Volunteer>
    <Id>275840583</Id>
    <Name>Shira Hadad</Name>
    <Phone>0509181893</Phone>
    <Mail>shirahadad@gmail.com</Mail>
    <Password>gGDBnmL</Password>
    <Address>Ben Yehuda St 100, Tel Aviv, 6347511</Address>
    <Latitude>32.089771</Latitude>
    <Longitude>34.773922</Longitude>
    <Active>true</Active>
    <MaximumDistance>1</MaximumDistance>
    <Role>Volunteer</Role>
    <Type>Aerial</Type>
  </Volunteer>
  <Volunteer>
    <Id>385264648</Id>
    <Name>Lior Oren</Name>
    <Phone>0554378755</Phone>
    <Mail>liororen@gmail.com</Mail>
    <Password>OxX0V8h</Password>
    <Address>Ehad HaAm St 50, Beersheba, 8455802</Address>
    <Latitude>31.25181</Latitude>
    <Longitude>34.79146</Longitude>
    <Active>false</Active>
    <MaximumDistance>2</MaximumDistance>
    <Role>Volunteer</Role>
    <Type>Aerial</Type>
  </Volunteer>
  <Volunteer>
    <Id>233662287</Id>
    <Name>Roni Peretz</Name>
    <Phone>0533732172</Phone>
    <Mail>roniperetz@gmail.com</Mail>
    <Password>oGF4ILn</Password>
    <Address>Herzliya St 15, Netanya, 4241102</Address>
    <Latitude>32.328516</Latitude>
    <Longitude>34.853196</Longitude>
    <Active>false</Active>
    <MaximumDistance>6</MaximumDistance>
    <Role>Volunteer</Role>
    <Type>Aerial</Type>
  </Volunteer>
  <Volunteer>
    <Id>364567353</Id>
    <Name>Yaakov Azulay</Name>
    <Phone>0523055609</Phone>
    <Mail>yaakovazulay@gmail.com</Mail>
    <Password>dQQdTKE</Password>
    <Address>Keren HaYesod St 22, Ashdod, 7728203</Address>
    <Latitude>31.802418</Latitude>
    <Longitude>34.641665</Longitude>
    <Active>false</Active>
    <MaximumDistance>6</MaximumDistance>
    <Role>Volunteer</Role>
    <Type>Aerial</Type>
  </Volunteer>
  <Volunteer>
    <Id>315658386</Id>
    <Name>Eden Dayan</Name>
    <Phone>0520967156</Phone>
    <Mail>edendayan@gmail.com</Mail>
    <Password>A0pqpXS</Password>
    <Address>Herzl St 45, Rishon LeZion, 7522001</Address>
    <Latitude>31.969633</Latitude>
    <Longitude>34.80439</Longitude>
    <Active>false</Active>
    <MaximumDistance>1</MaximumDistance>
    <Role>Volunteer</Role>
    <Type>Aerial</Type>
  </Volunteer>
  <Volunteer>
    <Id>360786054</Id>
    <Name>Talia Mor</Name>
    <Phone>0502988977</Phone>
    <Mail>taliamor@gmail.com</Mail>
    <Password>gHIOzR5</Password>
    <Address>Moshe Dayan St 3, Ashkelon, 7878203</Address>
    <Latitude>31.669258</Latitude>
    <Longitude>34.574262</Longitude>
    <Active>false</Active>
    <MaximumDistance>3</MaximumDistance>
    <Role>Volunteer</Role>
    <Type>Aerial</Type>
  </Volunteer>
</ArrayOfVolunteer>