<?xml version="1.0" encoding="utf-8"?>
<ArrayOfVolunteer xmlns:xsi="http://www.w3.org/2001/XMLSchema-instance" xmlns:xsd="http://www.w3.org/2001/XMLSchema">
  <Volunteer>
    <Id>204273819</Id>
    <Name>Amit Cohen</Name>
    <Phone>0546508536</Phone>
    <Mail>amitcohen@gmail.com</Mail>
    <Password>niB0vMb</Password>
    <Address>Herzl St 10, Tel Aviv, 6523701</Address>
    <Latitude>32.066158</Latitude>
    <Longitude>34.779808</Longitude>
    <Active>true</Active>
    <MaximumDistance>7</MaximumDistance>
    <Role>Management</Role>
    <Type>Aerial</Type>
  </Volunteer>
  <Volunteer>
    <Id>379156310</Id>
    <Name>Noa Levi</Name>
    <Phone>0550996298</Phone>
    <Mail>noalevi@gmail.com</Mail>
    <Password>5ZW1WYh</Password>
    <Address>Ben Gurion St 5, Ramat Gan, 5222002</Address>
    <Latitude>32.082271</Latitude>
    <Longitude>34.812548</Longitude>
    <Active>true</Active>
    <MaximumDistance>6</MaximumDistance>
    <Role>Volunteer</Role>
    <Type>Aerial</Type>
  </Volunteer>
  <Volunteer>
    <Id>225262408</Id>
    <Name>Yonatan Mizrahi</Name>
    <Phone>0586104238</Phone>
    <Mail>yonatanmizrahi@gmail.com</Mail>
    <Password>bEyhuvb</Password>
    <Address>Dizengoff St 25, Tel Aviv, 6311701</Address>
    <Latitude>32.08048</Latitude>
    <Longitude>34.774989</Longitude>
    <Active>true</Active>
    <MaximumDistance>8</MaximumDistance>
    <Role>Volunteer</Role>
    <Type>Aerial</Type>
  </Volunteer>
  <Volunteer>
    <Id>300885640</Id>
    <Name>Maya Azulay</Name>
    <Phone>0543772124</Phone>
    <Mail>mayaazulay@gmail.com</Mail>
    <Password>wEfxnBu</Password>
    <Address>Allenby St 40, Haifa, 3313302</Address>
    <Latitude>32.818409</Latitude>
    <Longitude>34.988507</Longitude>
    <Active>true</Active>
    <MaximumDistance>0</MaximumDistance>
    <Role>Volunteer</Role>
    <Type>Aerial</Type>
  </Volunteer>
  <Volunteer>
    <Id>356010084</Id>
    <Name>Daniel Gold</Name>
    <Phone>0586840402</Phone>
    <Mail>danielgold@gmail.com</Mail>
    <Password>fxMNT3p</Password>
    <Address>Jaffa St 60, Jerusalem, 9434101</Address>
    <Latitude>31.784217</Latitude>
    <Longitude>35.223391</Longitude>
    <Active>true</Active>
    <MaximumDistance>5</MaximumDistance>
    <Role>Volunteer</Role>
    <Type>Aerial</Type>
  </Volunteer>
  <Volunteer>
    <Id>298096862</Id>
    <Name>Hila Shalom</Name>
    <Phone>0530869165</Phone>
    <Mail>hilashalom@gmail.com</Mail>
    <Password>b491c3T</Password>
    <Address>Rothschild Blvd 16, Tel Aviv, 6688112</Address>
    <Latitude>32.063922</Latitude>
    <Longitude>34.771805</Longitude>
    <Active>true</Active>
    <MaximumDistance>9</MaximumDistance>
    <Role>Volunteer</Role>
    <Type>Aerial</Type>
  </Volunteer>
  <Volunteer>
    <Id>352844771</Id>
    <Name>Tomer Kaplan</Name>
    <Phone>0553314434</Phone>
    <Mail>tomerkaplan@gmail.com</Mail>
    <Password>SvveUBb</Password>
    <Address>Weizmann St 12, Kfar Saba, 4428104</Address>
    <Latitude>32.175034</Latitude>
    <Longitude>34.906552</Longitude>
    <Active>true</Active>
    <MaximumDistance>3</MaximumDistance>
    <Role>Volunteer</Role>
    <Type>Aerial</Type>
  </Volunteer>
  <Volunteer>
    <Id>241683848</Id>
    <Name>Yael Ben-David</Name>
    <Phone>0500942808</Phone>
    <Mail>yaelben-david@gmail.com</Mail>
    <Password>bjGe8OA</Password>
    <Address>HaNasi St 8, Herzliya, 4650403</Address>
    <Latitude>32.166313</Latitude>
    <Longitude>34.842972</Longitude>
    <Active>true</Active>
    <MaximumDistance>9</MaximumDistance>
    <Role>Volunteer</Role>
    <Type>Aerial</Type>
  </Volunteer>
  <Volunteer>
    <Id>295986052</Id>
    <Name>Eitan Sade</Name>
    <Phone>0506199904</Phone>
    <Mail>eitansade@gmail.com</Mail>
    <Password>3rLpX1x</Password>
    <Address>Sokolov St 30, Holon, 5831801</Address>
    <Latitude>32.014046</Latitude>
    <Longitude>34.772101</Longitude>
    <Active>true</Active>
    <MaximumDistance>0</MaximumDistance>
    <Role>Volunteer</Role>
    <Type>Aerial</Type>
  </Volunteer>
  <Volunteer>
    <Id>276736168</Id>
    <Name>Shira Hadad</Name>
    <Phone>0545581375</Phone>
    <Mail>shirahadad@gmail.com</Mail>
    <Password>ZJdE9KK</Password>
    <Address>Ben Yehuda St 100, Tel Aviv, 6347511</Address>
    <Latitude>32.089771</Latitude>
    <Longitude>34.773922</Longitude>
    <Active>true</Active>
    <MaximumDistance>5</MaximumDistance>
    <Role>Volunteer</Role>
    <Type>Aerial</Type>
  </Volunteer>
  <Volunteer>
    <Id>268423657</Id>
    <Name>Lior Oren</Name>
    <Phone>0547690373</Phone>
    <Mail>liororen@gmail.com</Mail>
    <Password>KXEddfT</Password>
    <Address>Ehad HaAm St 50, Beersheba, 8455802</Address>
    <Latitude>31.25181</Latitude>
    <Longitude>34.79146</Longitude>
    <Active>false</Active>
    <MaximumDistance>2</MaximumDistance>
    <Role>Volunteer</Role>
    <Type>Aerial</Type>
  </Volunteer>
  <Volunteer>
    <Id>268608346</Id>
    <Name>Roni Peretz</Name>
    <Phone>0526713790</Phone>
    <Mail>roniperetz@gmail.com</Mail>
    <Password>KLVztL4</Password>
    <Address>Herzliya St 15, Netanya, 4241102</Address>
    <Latitude>32.328516</Latitude>
    <Longitude>34.853196</Longitude>
    <Active>false</Active>
    <MaximumDistance>6</MaximumDistance>
    <Role>Volunteer</Role>
    <Type>Aerial</Type>
  </Volunteer>
  <Volunteer>
    <Id>219921870</Id>
    <Name>Yaakov Azulay</Name>
    <Phone>0553701080</Phone>
    <Mail>yaakovazulay@gmail.com</Mail>
    <Password>WfkA9EB</Password>
    <Address>Keren HaYesod St 22, Ashdod, 7728203</Address>
    <Latitude>31.802418</Latitude>
    <Longitude>34.641665</Longitude>
    <Active>false</Active>
    <MaximumDistance>3</MaximumDistance>
    <Role>Volunteer</Role>
    <Type>Aerial</Type>
  </Volunteer>
  <Volunteer>
    <Id>234942078</Id>
    <Name>Eden Dayan</Name>
    <Phone>0504167019</Phone>
    <Mail>edendayan@gmail.com</Mail>
    <Password>rPqS4MU</Password>
    <Address>Herzl St 45, Rishon LeZion, 7522001</Address>
    <Latitude>31.969633</Latitude>
    <Longitude>34.80439</Longitude>
    <Active>false</Active>
    <MaximumDistance>6</MaximumDistance>
    <Role>Volunteer</Role>
    <Type>Aerial</Type>
  </Volunteer>
  <Volunteer>
    <Id>390990298</Id>
    <Name>Talia Mor</Name>
    <Phone>0582526971</Phone>
    <Mail>taliamor@gmail.com</Mail>
    <Password>nKfY4AA</Password>
    <Address>Moshe Dayan St 3, Ashkelon, 7878203</Address>
    <Latitude>31.669258</Latitude>
    <Longitude>34.574262</Longitude>
    <Active>false</Active>
    <MaximumDistance>0</MaximumDistance>
    <Role>Volunteer</Role>
    <Type>Aerial</Type>
  </Volunteer>
</ArrayOfVolunteer>