<?xml version="1.0" encoding="utf-8"?>
<ArrayOfVolunteer xmlns:xsi="http://www.w3.org/2001/XMLSchema-instance" xmlns:xsd="http://www.w3.org/2001/XMLSchema">
  <Volunteer>
    <Id>228207193</Id>
    <Name>Amit Cohen</Name>
    <Phone>0507861683</Phone>
    <Mail>amitcohen@gmail.com</Mail>
    <Password>4JgT2Rs</Password>
    <Address>Herzl St 10, Tel Aviv, 6523701</Address>
    <Latitude>32.066158</Latitude>
    <Longitude>34.779808</Longitude>
    <Active>true</Active>
    <MaximumDistance>4</MaximumDistance>
    <Role>Management</Role>
    <Type>Aerial</Type>
  </Volunteer>
  <Volunteer>
    <Id>228230152</Id>
    <Name>Noa Levi</Name>
    <Phone>0540686984</Phone>
    <Mail>noalevi@gmail.com</Mail>
    <Password>370Fmeh</Password>
    <Address>Ben Gurion St 5, Ramat Gan, 5222002</Address>
    <Latitude>32.082271</Latitude>
    <Longitude>34.812548</Longitude>
    <Active>true</Active>
    <MaximumDistance>1</MaximumDistance>
    <Role>Volunteer</Role>
    <Type>Aerial</Type>
  </Volunteer>
  <Volunteer>
    <Id>268620992</Id>
    <Name>Yonatan Mizrahi</Name>
    <Phone>0581615365</Phone>
    <Mail>yonatanmizrahi@gmail.com</Mail>
    <Password>QogV7u9</Password>
    <Address>Dizengoff St 25, Tel Aviv, 6311701</Address>
    <Latitude>32.08048</Latitude>
    <Longitude>34.774989</Longitude>
    <Active>true</Active>
    <MaximumDistance>3</MaximumDistance>
    <Role>Volunteer</Role>
    <Type>Aerial</Type>
  </Volunteer>
  <Volunteer>
    <Id>317140286</Id>
    <Name>Maya Azulay</Name>
    <Phone>0525416578</Phone>
    <Mail>mayaazulay@gmail.com</Mail>
    <Password>v1yydBe</Password>
    <Address>Allenby St 40, Haifa, 3313302</Address>
    <Latitude>32.818409</Latitude>
    <Longitude>34.988507</Longitude>
    <Active>true</Active>
    <MaximumDistance>0</MaximumDistance>
    <Role>Volunteer</Role>
    <Type>Aerial</Type>
  </Volunteer>
  <Volunteer>
    <Id>387804787</Id>
    <Name>Daniel Gold</Name>
    <Phone>0541157573</Phone>
    <Mail>danielgold@gmail.com</Mail>
    <Password>mz1vzpu</Password>
    <Address>Jaffa St 60, Jerusalem, 9434101</Address>
    <Latitude>31.784217</Latitude>
    <Longitude>35.223391</Longitude>
    <Active>true</Active>
    <MaximumDistance>5</MaximumDistance>
    <Role>Volunteer</Role>
    <Type>Aerial</Type>
  </Volunteer>
  <Volunteer>
    <Id>310356640</Id>
    <Name>Hila Shalom</Name>
    <Phone>0522262454</Phone>
    <Mail>hilashalom@gmail.com</Mail>
    <Password>yI0FTYV</Password>
    <Address>Rothschild Blvd 16, Tel Aviv, 6688112</Address>
    <Latitude>32.063922</Latitude>
    <Longitude>34.771805</Longitude>
    <Active>true</Active>
    <MaximumDistance>4</MaximumDistance>
    <Role>Volunteer</Role>
    <Type>Aerial</Type>
  </Volunteer>
  <Volunteer>
    <Id>206789102</Id>
    <Name>Tomer Kaplan</Name>
    <Phone>0549875201</Phone>
    <Mail>tomerkaplan@gmail.com</Mail>
    <Password>qEM9PEp</Password>
    <Address>Weizmann St 12, Kfar Saba, 4428104</Address>
    <Latitude>32.175034</Latitude>
    <Longitude>34.906552</Longitude>
    <Active>true</Active>
    <MaximumDistance>7</MaximumDistance>
    <Role>Volunteer</Role>
    <Type>Aerial</Type>
  </Volunteer>
  <Volunteer>
    <Id>339776856</Id>
    <Name>Yael Ben-David</Name>
    <Phone>0547916385</Phone>
    <Mail>yaelben-david@gmail.com</Mail>
    <Password>wEOxM7A</Password>
    <Address>HaNasi St 8, Herzliya, 4650403</Address>
    <Latitude>32.166313</Latitude>
    <Longitude>34.842972</Longitude>
    <Active>true</Active>
    <MaximumDistance>4</MaximumDistance>
    <Role>Volunteer</Role>
    <Type>Aerial</Type>
  </Volunteer>
  <Volunteer>
    <Id>330929572</Id>
    <Name>Eitan Sade</Name>
    <Phone>0536027065</Phone>
    <Mail>eitansade@gmail.com</Mail>
    <Password>qhRQyGQ</Password>
    <Address>Sokolov St 30, Holon, 5831801</Address>
    <Latitude>32.014046</Latitude>
    <Longitude>34.772101</Longitude>
    <Active>true</Active>
    <MaximumDistance>9</MaximumDistance>
    <Role>Volunteer</Role>
    <Type>Aerial</Type>
  </Volunteer>
  <Volunteer>
    <Id>320428589</Id>
    <Name>Shira Hadad</Name>
    <Phone>0542041329</Phone>
    <Mail>shirahadad@gmail.com</Mail>
    <Password>X2s8MlJ</Password>
    <Address>Ben Yehuda St 100, Tel Aviv, 6347511</Address>
    <Latitude>32.089771</Latitude>
    <Longitude>34.773922</Longitude>
    <Active>true</Active>
    <MaximumDistance>4</MaximumDistance>
    <Role>Volunteer</Role>
    <Type>Aerial</Type>
  </Volunteer>
  <Volunteer>
    <Id>271060065</Id>
    <Name>Lior Oren</Name>
    <Phone>0584506747</Phone>
    <Mail>liororen@gmail.com</Mail>
    <Password>9Qc84QV</Password>
    <Address>Ehad HaAm St 50, Beersheba, 8455802</Address>
    <Latitude>31.25181</Latitude>
    <Longitude>34.79146</Longitude>
    <Active>false</Active>
    <MaximumDistance>0</MaximumDistance>
    <Role>Volunteer</Role>
    <Type>Aerial</Type>
  </Volunteer>
  <Volunteer>
    <Id>316356573</Id>
    <Name>Roni Peretz</Name>
    <Phone>0551658794</Phone>
    <Mail>roniperetz@gmail.com</Mail>
    <Password>64uCgGx</Password>
    <Address>Herzliya St 15, Netanya, 4241102</Address>
    <Latitude>32.328516</Latitude>
    <Longitude>34.853196</Longitude>
    <Active>false</Active>
    <MaximumDistance>7</MaximumDistance>
    <Role>Volunteer</Role>
    <Type>Aerial</Type>
  </Volunteer>
  <Volunteer>
    <Id>330430015</Id>
    <Name>Yaakov Azulay</Name>
    <Phone>0536387309</Phone>
    <Mail>yaakovazulay@gmail.com</Mail>
    <Password>kK6eI9L</Password>
    <Address>Keren HaYesod St 22, Ashdod, 7728203</Address>
    <Latitude>31.802418</Latitude>
    <Longitude>34.641665</Longitude>
    <Active>false</Active>
    <MaximumDistance>1</MaximumDistance>
    <Role>Volunteer</Role>
    <Type>Aerial</Type>
  </Volunteer>
  <Volunteer>
    <Id>240205059</Id>
    <Name>Eden Dayan</Name>
    <Phone>0547559656</Phone>
    <Mail>edendayan@gmail.com</Mail>
    <Password>iUYt6UA</Password>
    <Address>Herzl St 45, Rishon LeZion, 7522001</Address>
    <Latitude>31.969633</Latitude>
    <Longitude>34.80439</Longitude>
    <Active>false</Active>
    <MaximumDistance>3</MaximumDistance>
    <Role>Volunteer</Role>
    <Type>Aerial</Type>
  </Volunteer>
  <Volunteer>
    <Id>210021647</Id>
    <Name>Talia Mor</Name>
    <Phone>0589385284</Phone>
    <Mail>taliamor@gmail.com</Mail>
    <Password>yyxaE0S</Password>
    <Address>Moshe Dayan St 3, Ashkelon, 7878203</Address>
    <Latitude>31.669258</Latitude>
    <Longitude>34.574262</Longitude>
    <Active>false</Active>
    <MaximumDistance>2</MaximumDistance>
    <Role>Volunteer</Role>
    <Type>Aerial</Type>
  </Volunteer>
</ArrayOfVolunteer>