<?xml version="1.0" encoding="utf-8"?>
<ArrayOfVolunteer xmlns:xsi="http://www.w3.org/2001/XMLSchema-instance" xmlns:xsd="http://www.w3.org/2001/XMLSchema">
  <Volunteer>
    <Id>295931146</Id>
    <Name>Amit Cohen</Name>
    <Phone>0503806705</Phone>
    <Mail>amitcohen@gmail.com</Mail>
    <Password>Yjq9oHy</Password>
    <Address>Herzl St 10, Tel Aviv, 6523701</Address>
    <Latitude>32.066158</Latitude>
    <Longitude>34.779808</Longitude>
    <Active>true</Active>
    <MaximumDistance>0</MaximumDistance>
    <Role>Manager</Role>
    <Type>Aerial</Type>
  </Volunteer>
  <Volunteer>
    <Id>284704035</Id>
    <Name>Noa Levi</Name>
    <Phone>0539357869</Phone>
    <Mail>noalevi@gmail.com</Mail>
    <Password>RlwkPnD</Password>
    <Address>Ben Gurion St 5, Ramat Gan, 5222002</Address>
    <Latitude>32.082271</Latitude>
    <Longitude>34.812548</Longitude>
    <Active>true</Active>
    <MaximumDistance>8</MaximumDistance>
    <Role>Volunteer</Role>
    <Type>Aerial</Type>
  </Volunteer>
  <Volunteer>
    <Id>256660068</Id>
    <Name>Yonatan Mizrahi</Name>
    <Phone>0548470748</Phone>
    <Mail>yonatanmizrahi@gmail.com</Mail>
    <Password>wdUkGd5</Password>
    <Address>Dizengoff St 25, Tel Aviv, 6311701</Address>
    <Latitude>32.08048</Latitude>
    <Longitude>34.774989</Longitude>
    <Active>true</Active>
    <MaximumDistance>2</MaximumDistance>
    <Role>Volunteer</Role>
    <Type>Aerial</Type>
  </Volunteer>
  <Volunteer>
    <Id>207388354</Id>
    <Name>Maya Azulay</Name>
    <Phone>0524221089</Phone>
    <Mail>mayaazulay@gmail.com</Mail>
    <Password>Oar63Q1</Password>
    <Address>Allenby St 40, Haifa, 3313302</Address>
    <Latitude>32.818409</Latitude>
    <Longitude>34.988507</Longitude>
    <Active>true</Active>
    <MaximumDistance>9</MaximumDistance>
    <Role>Volunteer</Role>
    <Type>Aerial</Type>
  </Volunteer>
  <Volunteer>
    <Id>272213658</Id>
    <Name>Daniel Gold</Name>
    <Phone>0529991299</Phone>
    <Mail>danielgold@gmail.com</Mail>
    <Password>xFNfEse</Password>
    <Address>Jaffa St 60, Jerusalem, 9434101</Address>
    <Latitude>31.784217</Latitude>
    <Longitude>35.223391</Longitude>
    <Active>true</Active>
    <MaximumDistance>6</MaximumDistance>
    <Role>Volunteer</Role>
    <Type>Aerial</Type>
  </Volunteer>
  <Volunteer>
    <Id>333614422</Id>
    <Name>Hila Shalom</Name>
    <Phone>0559481100</Phone>
    <Mail>hilashalom@gmail.com</Mail>
    <Password>qBnzfie</Password>
    <Address>Rothschild Blvd 16, Tel Aviv, 6688112</Address>
    <Latitude>32.063922</Latitude>
    <Longitude>34.771805</Longitude>
    <Active>true</Active>
    <MaximumDistance>8</MaximumDistance>
    <Role>Volunteer</Role>
    <Type>Aerial</Type>
  </Volunteer>
  <Volunteer>
    <Id>391135150</Id>
    <Name>Tomer Kaplan</Name>
    <Phone>0551864424</Phone>
    <Mail>tomerkaplan@gmail.com</Mail>
    <Password>sqSwG0O</Password>
    <Address>Weizmann St 12, Kfar Saba, 4428104</Address>
    <Latitude>32.175034</Latitude>
    <Longitude>34.906552</Longitude>
    <Active>true</Active>
    <MaximumDistance>7</MaximumDistance>
    <Role>Volunteer</Role>
    <Type>Aerial</Type>
  </Volunteer>
  <Volunteer>
    <Id>317170503</Id>
    <Name>Yael Ben-David</Name>
    <Phone>0580264178</Phone>
    <Mail>yaelben-david@gmail.com</Mail>
    <Password>1Vbom6Y</Password>
    <Address>HaNasi St 8, Herzliya, 4650403</Address>
    <Latitude>32.166313</Latitude>
    <Longitude>34.842972</Longitude>
    <Active>true</Active>
    <MaximumDistance>9</MaximumDistance>
    <Role>Volunteer</Role>
    <Type>Aerial</Type>
  </Volunteer>
  <Volunteer>
    <Id>276540840</Id>
    <Name>Eitan Sade</Name>
    <Phone>0526143252</Phone>
    <Mail>eitansade@gmail.com</Mail>
    <Password>uH7EdCF</Password>
    <Address>Sokolov St 30, Holon, 5831801</Address>
    <Latitude>32.014046</Latitude>
    <Longitude>34.772101</Longitude>
    <Active>true</Active>
    <MaximumDistance>0</MaximumDistance>
    <Role>Volunteer</Role>
    <Type>Aerial</Type>
  </Volunteer>
  <Volunteer>
    <Id>263371917</Id>
    <Name>Shira Hadad</Name>
    <Phone>0580930323</Phone>
    <Mail>shirahadad@gmail.com</Mail>
    <Password>aLrm2ve</Password>
    <Address>Ben Yehuda St 100, Tel Aviv, 6347511</Address>
    <Latitude>32.089771</Latitude>
    <Longitude>34.773922</Longitude>
    <Active>true</Active>
    <MaximumDistance>7</MaximumDistance>
    <Role>Volunteer</Role>
    <Type>Aerial</Type>
  </Volunteer>
  <Volunteer>
    <Id>355715598</Id>
    <Name>Lior Oren</Name>
    <Phone>0543592013</Phone>
    <Mail>liororen@gmail.com</Mail>
    <Password>wZ9xMZI</Password>
    <Address>Ehad HaAm St 50, Beersheba, 8455802</Address>
    <Latitude>31.25181</Latitude>
    <Longitude>34.79146</Longitude>
    <Active>false</Active>
    <MaximumDistance>2</MaximumDistance>
    <Role>Volunteer</Role>
    <Type>Aerial</Type>
  </Volunteer>
  <Volunteer>
    <Id>283272369</Id>
    <Name>Roni Peretz</Name>
    <Phone>0551522005</Phone>
    <Mail>roniperetz@gmail.com</Mail>
    <Password>qLLpAz3</Password>
    <Address>Herzliya St 15, Netanya, 4241102</Address>
    <Latitude>32.328516</Latitude>
    <Longitude>34.853196</Longitude>
    <Active>false</Active>
    <MaximumDistance>7</MaximumDistance>
    <Role>Volunteer</Role>
    <Type>Aerial</Type>
  </Volunteer>
  <Volunteer>
    <Id>353127568</Id>
    <Name>Yaakov Azulay</Name>
    <Phone>0558996804</Phone>
    <Mail>yaakovazulay@gmail.com</Mail>
    <Password>K6pxwFn</Password>
    <Address>Keren HaYesod St 22, Ashdod, 7728203</Address>
    <Latitude>31.802418</Latitude>
    <Longitude>34.641665</Longitude>
    <Active>false</Active>
    <MaximumDistance>3</MaximumDistance>
    <Role>Volunteer</Role>
    <Type>Aerial</Type>
  </Volunteer>
  <Volunteer>
    <Id>274556075</Id>
    <Name>Eden Dayan</Name>
    <Phone>0546394318</Phone>
    <Mail>edendayan@gmail.com</Mail>
    <Password>tLeDaMj</Password>
    <Address>Herzl St 45, Rishon LeZion, 7522001</Address>
    <Latitude>31.969633</Latitude>
    <Longitude>34.80439</Longitude>
    <Active>false</Active>
    <MaximumDistance>2</MaximumDistance>
    <Role>Volunteer</Role>
    <Type>Aerial</Type>
  </Volunteer>
  <Volunteer>
    <Id>255350465</Id>
    <Name>Talia Mor</Name>
    <Phone>0525967353</Phone>
    <Mail>taliamor@gmail.com</Mail>
    <Password>cH9BWzc</Password>
    <Address>Moshe Dayan St 3, Ashkelon, 7878203</Address>
    <Latitude>31.669258</Latitude>
    <Longitude>34.574262</Longitude>
    <Active>false</Active>
    <MaximumDistance>3</MaximumDistance>
    <Role>Volunteer</Role>
    <Type>Aerial</Type>
  </Volunteer>
</ArrayOfVolunteer>