<?xml version="1.0" encoding="utf-8"?>
<ArrayOfVolunteer xmlns:xsi="http://www.w3.org/2001/XMLSchema-instance" xmlns:xsd="http://www.w3.org/2001/XMLSchema">
  <Volunteer>
    <Id>123456782</Id>
    <Name>Amit Cohen</Name>
    <Phone>0548992385</Phone>
    <Mail>amitcohen@gmail.com</Mail>
    <Password>12!@MAnager</Password>
    <Address>Herzl St 10, Tel Aviv, 6523701</Address>
    <Latitude>32.066158</Latitude>
    <Longitude>34.779808</Longitude>
    <Active>true</Active>
    <MaximumDistance>4</MaximumDistance>
    <Role>Manager</Role>
    <Type>Aerial</Type>
  </Volunteer>
  <Volunteer>
    <Id>755617263</Id>
    <Name>Noa Levi</Name>
    <Phone>0540448725</Phone>
    <Mail>noalevi@gmail.com</Mail>
    <Password>bL0{oiF9</Password>
    <Address>Ben Gurion St 5, Ramat Gan, 5222002</Address>
    <Latitude>32.082271</Latitude>
    <Longitude>34.812548</Longitude>
    <Active>true</Active>
    <MaximumDistance>6</MaximumDistance>
    <Role>Volunteer</Role>
    <Type>Aerial</Type>
  </Volunteer>
  <Volunteer>
    <Id>211895875</Id>
    <Name>Maya Azulay</Name>
    <Phone>0542061527</Phone>
    <Mail>mayaazulay@gmail.com</Mail>
    <Password>zK1@fbn^</Password>
    <Address>Allenby St 40, Haifa, 3313302</Address>
    <Latitude>32.818409</Latitude>
    <Longitude>34.988507</Longitude>
    <Active>true</Active>
    <MaximumDistance>8</MaximumDistance>
    <Role>Volunteer</Role>
    <Type>Aerial</Type>
  </Volunteer>
  <Volunteer>
    <Id>642873244</Id>
    <Name>Daniel Gold</Name>
    <Phone>0533499805</Phone>
    <Mail>danielgold@gmail.com</Mail>
    <Password>mW2%t$#l</Password>
    <Address>Jaffa St 60, Jerusalem, 9434101</Address>
    <Latitude>31.784217</Latitude>
    <Longitude>35.223391</Longitude>
    <Active>true</Active>
    <MaximumDistance>9</MaximumDistance>
    <Role>Volunteer</Role>
    <Type>Aerial</Type>
  </Volunteer>
  <Volunteer>
    <Id>643758634</Id>
    <Name>Yael Ben-David</Name>
    <Phone>0534391739</Phone>
    <Mail>yaelben-david@gmail.com</Mail>
    <Password>qJ1^XD1C</Password>
    <Address>HaNasi St 8, Herzliya, 4650403</Address>
    <Latitude>32.166313</Latitude>
    <Longitude>34.842972</Longitude>
    <Active>true</Active>
    <MaximumDistance>7</MaximumDistance>
    <Role>Volunteer</Role>
    <Type>Aerial</Type>
  </Volunteer>
  <Volunteer>
    <Id>594727117</Id>
    <Name>Shira Hadad</Name>
    <Phone>0580476141</Phone>
    <Mail>shirahadad@gmail.com</Mail>
    <Password>xW3!Qz5Z</Password>
    <Address>Ben Yehuda St 100, Tel Aviv, 6347511</Address>
    <Latitude>32.089771</Latitude>
    <Longitude>34.773922</Longitude>
    <Active>true</Active>
    <MaximumDistance>1</MaximumDistance>
    <Role>Volunteer</Role>
    <Type>Aerial</Type>
  </Volunteer>
  <Volunteer>
    <Id>528542707</Id>
    <Name>Lior Oren</Name>
    <Phone>0556083151</Phone>
    <Mail>liororen@gmail.com</Mail>
    <Password>bT5^g6$E</Password>
    <Address>Ehad HaAm St 50, Beersheba, 8455802</Address>
    <Latitude>31.25181</Latitude>
    <Longitude>34.79146</Longitude>
    <Active>false</Active>
    <MaximumDistance>1</MaximumDistance>
    <Role>Volunteer</Role>
    <Type>Aerial</Type>
  </Volunteer>
  <Volunteer>
    <Id>684681943</Id>
    <Name>Roni Peretz</Name>
    <Phone>0549751640</Phone>
    <Mail>roniperetz@gmail.com</Mail>
    <Password>gA8$tEUD</Password>
    <Address>Herzliya St 15, Netanya, 4241102</Address>
    <Latitude>32.328516</Latitude>
    <Longitude>34.853196</Longitude>
    <Active>false</Active>
    <MaximumDistance>3</MaximumDistance>
    <Role>Volunteer</Role>
    <Type>Aerial</Type>
  </Volunteer>
  <Volunteer>
    <Id>679084590</Id>
    <Name>Yaakov Azulay</Name>
    <Phone>0583291485</Phone>
    <Mail>yaakovazulay@gmail.com</Mail>
    <Password>cC6.qI9e</Password>
    <Address>Keren HaYesod St 22, Ashdod, 7728203</Address>
    <Latitude>31.802418</Latitude>
    <Longitude>34.641665</Longitude>
    <Active>false</Active>
    <MaximumDistance>3</MaximumDistance>
    <Role>Volunteer</Role>
    <Type>Aerial</Type>
  </Volunteer>
  <Volunteer>
    <Id>752014936</Id>
    <Name>Eden Dayan</Name>
    <Phone>0537078362</Phone>
    <Mail>edendayan@gmail.com</Mail>
    <Password>yL9.Gpvr</Password>
    <Address>Herzl St 45, Rishon LeZion, 7522001</Address>
    <Latitude>31.969633</Latitude>
    <Longitude>34.80439</Longitude>
    <Active>false</Active>
    <MaximumDistance>9</MaximumDistance>
    <Role>Volunteer</Role>
    <Type>Aerial</Type>
  </Volunteer>
  <Volunteer>
    <Id>794274092</Id>
    <Name>Talia Mor</Name>
    <Phone>0529663762</Phone>
    <Mail>taliamor@gmail.com</Mail>
    <Password>xB1^Xj2v</Password>
    <Address>Moshe Dayan St 3, Ashkelon, 7878203</Address>
    <Latitude>31.669258</Latitude>
    <Longitude>34.574262</Longitude>
    <Active>false</Active>
    <MaximumDistance>5</MaximumDistance>
    <Role>Volunteer</Role>
    <Type>Aerial</Type>
  </Volunteer>
  <Volunteer>
    <Id>399068360</Id>
    <Name>Yonatan Mizrahi</Name>
    <Phone>0521292074</Phone>
    <Mail>yonatanmizrahi@gmail.com</Mail>
    <Password>pV2|mm6L</Password>
    <Address>Dizengoff St 25, Tel Aviv, 6311701</Address>
    <Latitude>32.08048</Latitude>
    <Longitude>34.774989</Longitude>
    <Active>true</Active>
    <MaximumDistance>9</MaximumDistance>
    <Role>Volunteer</Role>
    <Type>Aerial</Type>
  </Volunteer>
  <Volunteer>
    <Id>653772012</Id>
    <Name>Hila Shalom</Name>
    <Phone>0530599603</Phone>
    <Mail>hilashalom@gmail.com</Mail>
    <Password>zD8%E)Mo</Password>
    <Address>Rothschild Blvd 16, Tel Aviv, 6688112</Address>
    <Latitude>32.063922</Latitude>
    <Longitude>34.771805</Longitude>
    <Active>true</Active>
    <MaximumDistance>4</MaximumDistance>
    <Role>Volunteer</Role>
    <Type>Aerial</Type>
  </Volunteer>
  <Volunteer>
    <Id>799490834</Id>
    <Name>Eitan Sade</Name>
    <Phone>0548569397</Phone>
    <Mail>eitansade@gmail.com</Mail>
    <Password>oP1^YKow</Password>
    <Address>Sokolov St 30, Holon, 5831801</Address>
    <Latitude>32.014046</Latitude>
    <Longitude>34.772101</Longitude>
    <Active>true</Active>
    <MaximumDistance>2</MaximumDistance>
    <Role>Volunteer</Role>
    <Type>Aerial</Type>
  </Volunteer>
  <Volunteer>
    <Id>826838591</Id>
    <Name>Tomer Kaplan</Name>
    <Phone>0500489188</Phone>
    <Mail>tomerkaplan@gmail.com</Mail>
    <Password>vS8}Y6qd</Password>
    <Address>Weizmann St 12, Kfar Saba, 4428104</Address>
    <Latitude>32.175034</Latitude>
    <Longitude>34.906552</Longitude>
    <Active>true</Active>
    <MaximumDistance>8</MaximumDistance>
    <Role>Volunteer</Role>
    <Type>Aerial</Type>
  </Volunteer>
</ArrayOfVolunteer>