<?xml version="1.0" encoding="utf-8"?>
<ArrayOfVolunteer xmlns:xsi="http://www.w3.org/2001/XMLSchema-instance" xmlns:xsd="http://www.w3.org/2001/XMLSchema">
  <Volunteer>
    <Id>352552004</Id>
    <Name>Noa Levi</Name>
    <Phone>0523625648</Phone>
    <Mail>noalevi@gmail.com</Mail>
    <Password>vY2?vBGR</Password>
    <Address>Ben Gurion St 5, Ramat Gan, 5222002</Address>
    <Latitude>32.082271</Latitude>
    <Longitude>34.812548</Longitude>
    <Active>true</Active>
    <MaximumDistance>8</MaximumDistance>
    <Role>Volunteer</Role>
    <Type>Aerial</Type>
  </Volunteer>
  <Volunteer>
    <Id>197879513</Id>
    <Name>Yonatan Mizrahi</Name>
    <Phone>0523737423</Phone>
    <Mail>yonatanmizrahi@gmail.com</Mail>
    <Password>xK4|!heT</Password>
    <Address>Dizengoff St 25, Tel Aviv, 6311701</Address>
    <Latitude>32.08048</Latitude>
    <Longitude>34.774989</Longitude>
    <Active>true</Active>
    <MaximumDistance>2</MaximumDistance>
    <Role>Volunteer</Role>
    <Type>Aerial</Type>
  </Volunteer>
  <Volunteer>
    <Id>832469266</Id>
    <Name>Maya Azulay</Name>
    <Phone>0528571020</Phone>
    <Mail>mayaazulay@gmail.com</Mail>
    <Password>xE4,y(8q</Password>
    <Address>Allenby St 40, Haifa, 3313302</Address>
    <Latitude>32.818409</Latitude>
    <Longitude>34.988507</Longitude>
    <Active>true</Active>
    <MaximumDistance>4</MaximumDistance>
    <Role>Volunteer</Role>
    <Type>Aerial</Type>
  </Volunteer>
  <Volunteer>
    <Id>324069012</Id>
    <Name>Daniel Gold</Name>
    <Phone>0502239007</Phone>
    <Mail>danielgold@gmail.com</Mail>
    <Password>xO9"HKHe</Password>
    <Address>Jaffa St 60, Jerusalem, 9434101</Address>
    <Latitude>31.784217</Latitude>
    <Longitude>35.223391</Longitude>
    <Active>true</Active>
    <MaximumDistance>1</MaximumDistance>
    <Role>Volunteer</Role>
    <Type>Aerial</Type>
  </Volunteer>
  <Volunteer>
    <Id>579936915</Id>
    <Name>Hila Shalom</Name>
    <Phone>0503995985</Phone>
    <Mail>hilashalom@gmail.com</Mail>
    <Password>dF0,F^W2</Password>
    <Address>Rothschild Blvd 16, Tel Aviv, 6688112</Address>
    <Latitude>32.063922</Latitude>
    <Longitude>34.771805</Longitude>
    <Active>true</Active>
    <MaximumDistance>3</MaximumDistance>
    <Role>Volunteer</Role>
    <Type>Aerial</Type>
  </Volunteer>
  <Volunteer>
    <Id>811013044</Id>
    <Name>Tomer Kaplan</Name>
    <Phone>0537209142</Phone>
    <Mail>tomerkaplan@gmail.com</Mail>
    <Password>eE4.D#|2</Password>
    <Address>Weizmann St 12, Kfar Saba, 4428104</Address>
    <Latitude>32.175034</Latitude>
    <Longitude>34.906552</Longitude>
    <Active>true</Active>
    <MaximumDistance>1</MaximumDistance>
    <Role>Volunteer</Role>
    <Type>Aerial</Type>
  </Volunteer>
  <Volunteer>
    <Id>107874018</Id>
    <Name>Yael Ben-David</Name>
    <Phone>0586324043</Phone>
    <Mail>yaelben-david@gmail.com</Mail>
    <Password>vZ5@3|LJ</Password>
    <Address>HaNasi St 8, Herzliya, 4650403</Address>
    <Latitude>32.166313</Latitude>
    <Longitude>34.842972</Longitude>
    <Active>true</Active>
    <MaximumDistance>0</MaximumDistance>
    <Role>Volunteer</Role>
    <Type>Aerial</Type>
  </Volunteer>
  <Volunteer>
    <Id>209470988</Id>
    <Name>Eitan Sade</Name>
    <Phone>0538998858</Phone>
    <Mail>eitansade@gmail.com</Mail>
    <Password>zX9}dIpf</Password>
    <Address>Sokolov St 30, Holon, 5831801</Address>
    <Latitude>32.014046</Latitude>
    <Longitude>34.772101</Longitude>
    <Active>true</Active>
    <MaximumDistance>3</MaximumDistance>
    <Role>Volunteer</Role>
    <Type>Aerial</Type>
  </Volunteer>
  <Volunteer>
    <Id>962935292</Id>
    <Name>Shira Hadad</Name>
    <Phone>0558477222</Phone>
    <Mail>shirahadad@gmail.com</Mail>
    <Password>kH1!9oPs</Password>
    <Address>Ben Yehuda St 100, Tel Aviv, 6347511</Address>
    <Latitude>32.089771</Latitude>
    <Longitude>34.773922</Longitude>
    <Active>true</Active>
    <MaximumDistance>3</MaximumDistance>
    <Role>Volunteer</Role>
    <Type>Aerial</Type>
  </Volunteer>
  <Volunteer>
    <Id>361129406</Id>
    <Name>Lior Oren</Name>
    <Phone>0541666099</Phone>
    <Mail>liororen@gmail.com</Mail>
    <Password>pO3,FK7^</Password>
    <Address>Ehad HaAm St 50, Beersheba, 8455802</Address>
    <Latitude>31.25181</Latitude>
    <Longitude>34.79146</Longitude>
    <Active>false</Active>
    <MaximumDistance>7</MaximumDistance>
    <Role>Volunteer</Role>
    <Type>Aerial</Type>
  </Volunteer>
  <Volunteer>
    <Id>297494809</Id>
    <Name>Roni Peretz</Name>
    <Phone>0520500992</Phone>
    <Mail>roniperetz@gmail.com</Mail>
    <Password>jP4!wpLU</Password>
    <Address>Herzliya St 15, Netanya, 4241102</Address>
    <Latitude>32.328516</Latitude>
    <Longitude>34.853196</Longitude>
    <Active>false</Active>
    <MaximumDistance>8</MaximumDistance>
    <Role>Volunteer</Role>
    <Type>Aerial</Type>
  </Volunteer>
  <Volunteer>
    <Id>602573362</Id>
    <Name>Yaakov Azulay</Name>
    <Phone>0500147086</Phone>
    <Mail>yaakovazulay@gmail.com</Mail>
    <Password>rF2@k"PQ</Password>
    <Address>Keren HaYesod St 22, Ashdod, 7728203</Address>
    <Latitude>31.802418</Latitude>
    <Longitude>34.641665</Longitude>
    <Active>false</Active>
    <MaximumDistance>3</MaximumDistance>
    <Role>Volunteer</Role>
    <Type>Aerial</Type>
  </Volunteer>
  <Volunteer>
    <Id>200241222</Id>
    <Name>Eden Dayan</Name>
    <Phone>0507823162</Phone>
    <Mail>edendayan@gmail.com</Mail>
    <Password>gN4!"G*K</Password>
    <Address>Herzl St 45, Rishon LeZion, 7522001</Address>
    <Latitude>31.969633</Latitude>
    <Longitude>34.80439</Longitude>
    <Active>false</Active>
    <MaximumDistance>3</MaximumDistance>
    <Role>Volunteer</Role>
    <Type>Aerial</Type>
  </Volunteer>
  <Volunteer>
    <Id>737464735</Id>
    <Name>Talia Mor</Name>
    <Phone>0584636349</Phone>
    <Mail>taliamor@gmail.com</Mail>
    <Password>vU3#narD</Password>
    <Address>Moshe Dayan St 3, Ashkelon, 7878203</Address>
    <Latitude>31.669258</Latitude>
    <Longitude>34.574262</Longitude>
    <Active>false</Active>
    <MaximumDistance>0</MaximumDistance>
    <Role>Volunteer</Role>
    <Type>Aerial</Type>
  </Volunteer>
  <Volunteer>
    <Id>287118574</Id>
    <Name>Amit Cohen</Name>
    <Phone>0549858878</Phone>
    <Mail>amitcohen@gmail.com</Mail>
    <Password>sS0)|ctP</Password>
    <Address>Herzl St 12, Tel Aviv</Address>
    <Latitude>32.0930836</Latitude>
    <Longitude>34.8354289</Longitude>
    <Active>true</Active>
    <MaximumDistance>2</MaximumDistance>
    <Role>Manager</Role>
    <Type>Aerial</Type>
  </Volunteer>
</ArrayOfVolunteer>