<?xml version="1.0" encoding="utf-8"?>
<ArrayOfVolunteer xmlns:xsi="http://www.w3.org/2001/XMLSchema-instance" xmlns:xsd="http://www.w3.org/2001/XMLSchema">
  <Volunteer>
    <Id>200520284</Id>
    <Name>Amit Cohen</Name>
    <Phone>0505762274</Phone>
    <Mail>amitcohen@gmail.com</Mail>
    <Password>e1fzohw</Password>
    <Address>Herzl St 10, Tel Aviv, 6523701</Address>
    <Latitude>32.066158</Latitude>
    <Longitude>34.779808</Longitude>
    <Active>true</Active>
    <MaximumDistance>5</MaximumDistance>
    <Role>Manager</Role>
    <Type>Aerial</Type>
  </Volunteer>
  <Volunteer>
    <Id>385646726</Id>
    <Name>Noa Levi</Name>
    <Phone>0541704270</Phone>
    <Mail>noalevi@gmail.com</Mail>
    <Password>JdSSKwO</Password>
    <Address>Ben Gurion St 5, Ramat Gan, 5222002</Address>
    <Latitude>32.082271</Latitude>
    <Longitude>34.812548</Longitude>
    <Active>true</Active>
    <MaximumDistance>2</MaximumDistance>
    <Role>Volunteer</Role>
    <Type>Aerial</Type>
  </Volunteer>
  <Volunteer>
    <Id>330789147</Id>
    <Name>Yonatan Mizrahi</Name>
    <Phone>0586447603</Phone>
    <Mail>yonatanmizrahi@gmail.com</Mail>
    <Password>KLWtyZr</Password>
    <Address>Dizengoff St 25, Tel Aviv, 6311701</Address>
    <Latitude>32.08048</Latitude>
    <Longitude>34.774989</Longitude>
    <Active>true</Active>
    <MaximumDistance>6</MaximumDistance>
    <Role>Volunteer</Role>
    <Type>Aerial</Type>
  </Volunteer>
  <Volunteer>
    <Id>366227975</Id>
    <Name>Maya Azulay</Name>
    <Phone>0589941372</Phone>
    <Mail>mayaazulay@gmail.com</Mail>
    <Password>ZE44jBg</Password>
    <Address>Allenby St 40, Haifa, 3313302</Address>
    <Latitude>32.818409</Latitude>
    <Longitude>34.988507</Longitude>
    <Active>true</Active>
    <MaximumDistance>3</MaximumDistance>
    <Role>Volunteer</Role>
    <Type>Aerial</Type>
  </Volunteer>
  <Volunteer>
    <Id>246169656</Id>
    <Name>Daniel Gold</Name>
    <Phone>0535066893</Phone>
    <Mail>danielgold@gmail.com</Mail>
    <Password>zCP4B4i</Password>
    <Address>Jaffa St 60, Jerusalem, 9434101</Address>
    <Latitude>31.784217</Latitude>
    <Longitude>35.223391</Longitude>
    <Active>true</Active>
    <MaximumDistance>7</MaximumDistance>
    <Role>Volunteer</Role>
    <Type>Aerial</Type>
  </Volunteer>
  <Volunteer>
    <Id>378806389</Id>
    <Name>Hila Shalom</Name>
    <Phone>0509407795</Phone>
    <Mail>hilashalom@gmail.com</Mail>
    <Password>UcDKskK</Password>
    <Address>Rothschild Blvd 16, Tel Aviv, 6688112</Address>
    <Latitude>32.063922</Latitude>
    <Longitude>34.771805</Longitude>
    <Active>true</Active>
    <MaximumDistance>0</MaximumDistance>
    <Role>Volunteer</Role>
    <Type>Aerial</Type>
  </Volunteer>
  <Volunteer>
    <Id>279211952</Id>
    <Name>Tomer Kaplan</Name>
    <Phone>0531696603</Phone>
    <Mail>tomerkaplan@gmail.com</Mail>
    <Password>1edYkdw</Password>
    <Address>Weizmann St 12, Kfar Saba, 4428104</Address>
    <Latitude>32.175034</Latitude>
    <Longitude>34.906552</Longitude>
    <Active>true</Active>
    <MaximumDistance>9</MaximumDistance>
    <Role>Volunteer</Role>
    <Type>Aerial</Type>
  </Volunteer>
  <Volunteer>
    <Id>380575611</Id>
    <Name>Yael Ben-David</Name>
    <Phone>0521186087</Phone>
    <Mail>yaelben-david@gmail.com</Mail>
    <Password>G4rCQ78</Password>
    <Address>HaNasi St 8, Herzliya, 4650403</Address>
    <Latitude>32.166313</Latitude>
    <Longitude>34.842972</Longitude>
    <Active>true</Active>
    <MaximumDistance>9</MaximumDistance>
    <Role>Volunteer</Role>
    <Type>Aerial</Type>
  </Volunteer>
  <Volunteer>
    <Id>201189055</Id>
    <Name>Eitan Sade</Name>
    <Phone>0525338760</Phone>
    <Mail>eitansade@gmail.com</Mail>
    <Password>PEYLYLl</Password>
    <Address>Sokolov St 30, Holon, 5831801</Address>
    <Latitude>32.014046</Latitude>
    <Longitude>34.772101</Longitude>
    <Active>true</Active>
    <MaximumDistance>5</MaximumDistance>
    <Role>Volunteer</Role>
    <Type>Aerial</Type>
  </Volunteer>
  <Volunteer>
    <Id>239847726</Id>
    <Name>Shira Hadad</Name>
    <Phone>0556218742</Phone>
    <Mail>shirahadad@gmail.com</Mail>
    <Password>vh20fO9</Password>
    <Address>Ben Yehuda St 100, Tel Aviv, 6347511</Address>
    <Latitude>32.089771</Latitude>
    <Longitude>34.773922</Longitude>
    <Active>true</Active>
    <MaximumDistance>1</MaximumDistance>
    <Role>Volunteer</Role>
    <Type>Aerial</Type>
  </Volunteer>
  <Volunteer>
    <Id>282747469</Id>
    <Name>Lior Oren</Name>
    <Phone>0586433829</Phone>
    <Mail>liororen@gmail.com</Mail>
    <Password>5GbWRQX</Password>
    <Address>Ehad HaAm St 50, Beersheba, 8455802</Address>
    <Latitude>31.25181</Latitude>
    <Longitude>34.79146</Longitude>
    <Active>false</Active>
    <MaximumDistance>0</MaximumDistance>
    <Role>Volunteer</Role>
    <Type>Aerial</Type>
  </Volunteer>
  <Volunteer>
    <Id>282194506</Id>
    <Name>Roni Peretz</Name>
    <Phone>0545706004</Phone>
    <Mail>roniperetz@gmail.com</Mail>
    <Password>VXdrk6O</Password>
    <Address>Herzliya St 15, Netanya, 4241102</Address>
    <Latitude>32.328516</Latitude>
    <Longitude>34.853196</Longitude>
    <Active>false</Active>
    <MaximumDistance>6</MaximumDistance>
    <Role>Volunteer</Role>
    <Type>Aerial</Type>
  </Volunteer>
  <Volunteer>
    <Id>287758641</Id>
    <Name>Yaakov Azulay</Name>
    <Phone>0543372727</Phone>
    <Mail>yaakovazulay@gmail.com</Mail>
    <Password>1zWo2Q0</Password>
    <Address>Keren HaYesod St 22, Ashdod, 7728203</Address>
    <Latitude>31.802418</Latitude>
    <Longitude>34.641665</Longitude>
    <Active>false</Active>
    <MaximumDistance>7</MaximumDistance>
    <Role>Volunteer</Role>
    <Type>Aerial</Type>
  </Volunteer>
  <Volunteer>
    <Id>270817180</Id>
    <Name>Eden Dayan</Name>
    <Phone>0589470343</Phone>
    <Mail>edendayan@gmail.com</Mail>
    <Password>YXpCC7u</Password>
    <Address>Herzl St 45, Rishon LeZion, 7522001</Address>
    <Latitude>31.969633</Latitude>
    <Longitude>34.80439</Longitude>
    <Active>false</Active>
    <MaximumDistance>0</MaximumDistance>
    <Role>Volunteer</Role>
    <Type>Aerial</Type>
  </Volunteer>
  <Volunteer>
    <Id>340718383</Id>
    <Name>Talia Mor</Name>
    <Phone>0580788426</Phone>
    <Mail>taliamor@gmail.com</Mail>
    <Password>WDjrLIK</Password>
    <Address>Moshe Dayan St 3, Ashkelon, 7878203</Address>
    <Latitude>31.669258</Latitude>
    <Longitude>34.574262</Longitude>
    <Active>false</Active>
    <MaximumDistance>4</MaximumDistance>
    <Role>Volunteer</Role>
    <Type>Aerial</Type>
  </Volunteer>
</ArrayOfVolunteer>