<?xml version="1.0" encoding="utf-8"?>
<ArrayOfVolunteer xmlns:xsi="http://www.w3.org/2001/XMLSchema-instance" xmlns:xsd="http://www.w3.org/2001/XMLSchema">
  <Volunteer>
    <Id>123456782</Id>
    <Name>Amit Cohen</Name>
    <Phone>0557641395</Phone>
    <Mail>amitcohen@gmail.com</Mail>
    <Password>12!@MAnager</Password>
    <Address>15 HaNevi'im St, Jerusalem, Israel</Address>
    <Latitude>31.7801</Latitude>
    <Longitude>35.2223</Longitude>
    <Active>true</Active>
    <MaximumDistance>2</MaximumDistance>
    <Role>Manager</Role>
    <Type>Aerial</Type>
  </Volunteer>
  <Volunteer>
    <Id>218311280</Id>
    <Name>Noa Levi</Name>
    <Phone>0524666922</Phone>
    <Mail>noalevi@gmail.com</Mail>
    <Password>vK2^*m!L</Password>
    <Address>100 Dizengoff St, Tel Aviv, Israel</Address>
    <Latitude>32.0869</Latitude>
    <Longitude>34.7745</Longitude>
    <Active>true</Active>
    <MaximumDistance>8</MaximumDistance>
    <Role>Volunteer</Role>
    <Type>Aerial</Type>
  </Volunteer>
  <Volunteer>
    <Id>289163735</Id>
    <Name>Yonatan Mizrahi</Name>
    <Phone>0538460149</Phone>
    <Mail>yonatanmizrahi@gmail.com</Mail>
    <Password>dZ5!K!)}</Password>
    <Address>50 Herzl St, Haifa, Israel</Address>
    <Latitude>32.8153</Latitude>
    <Longitude>34.9896</Longitude>
    <Active>true</Active>
    <MaximumDistance>8</MaximumDistance>
    <Role>Volunteer</Role>
    <Type>Aerial</Type>
  </Volunteer>
  <Volunteer>
    <Id>257922583</Id>
    <Name>Maya Azulay</Name>
    <Phone>0525079928</Phone>
    <Mail>mayaazulay@gmail.com</Mail>
    <Password>hD5}cz{a</Password>
    <Address>5 Ben Gurion St, Herzliya, Israel</Address>
    <Latitude>32.1613</Latitude>
    <Longitude>34.8337</Longitude>
    <Active>true</Active>
    <MaximumDistance>2</MaximumDistance>
    <Role>Volunteer</Role>
    <Type>Aerial</Type>
  </Volunteer>
  <Volunteer>
    <Id>573695798</Id>
    <Name>Daniel Gold</Name>
    <Phone>0548066932</Phone>
    <Mail>danielgold@gmail.com</Mail>
    <Password>wK9.%7K"</Password>
    <Address>20 Rothschild Blvd, Tel Aviv, Israel</Address>
    <Latitude>32.065</Latitude>
    <Longitude>34.7732</Longitude>
    <Active>true</Active>
    <MaximumDistance>4</MaximumDistance>
    <Role>Volunteer</Role>
    <Type>Aerial</Type>
  </Volunteer>
  <Volunteer>
    <Id>206206559</Id>
    <Name>Hila Shalom</Name>
    <Phone>0547232731</Phone>
    <Mail>hilashalom@gmail.com</Mail>
    <Password>cA4#BzTO</Password>
    <Address>30 Hillel St, Jerusalem, Israel</Address>
    <Latitude>31.7798</Latitude>
    <Longitude>35.2207</Longitude>
    <Active>true</Active>
    <MaximumDistance>3</MaximumDistance>
    <Role>Volunteer</Role>
    <Type>Aerial</Type>
  </Volunteer>
  <Volunteer>
    <Id>681561569</Id>
    <Name>Tomer Kaplan</Name>
    <Phone>0585983727</Phone>
    <Mail>tomerkaplan@gmail.com</Mail>
    <Password>nN2*"BsP</Password>
    <Address>10 Weizmann St, Kfar Saba, Israel</Address>
    <Latitude>32.1773</Latitude>
    <Longitude>34.9065</Longitude>
    <Active>true</Active>
    <MaximumDistance>2</MaximumDistance>
    <Role>Volunteer</Role>
    <Type>Aerial</Type>
  </Volunteer>
  <Volunteer>
    <Id>388535817</Id>
    <Name>Yael Ben-David</Name>
    <Phone>0583298548</Phone>
    <Mail>yaelben-david@gmail.com</Mail>
    <Password>uI7,ao5.</Password>
    <Address>45 Allenby St, Tel Aviv, Israel</Address>
    <Latitude>32.0614</Latitude>
    <Longitude>34.7706</Longitude>
    <Active>true</Active>
    <MaximumDistance>2</MaximumDistance>
    <Role>Volunteer</Role>
    <Type>Aerial</Type>
  </Volunteer>
  <Volunteer>
    <Id>712261312</Id>
    <Name>Eitan Sade</Name>
    <Phone>0537279513</Phone>
    <Mail>eitansade@gmail.com</Mail>
    <Password>aH9(8T*8</Password>
    <Address>1 Rothschild Blvd, Tel Aviv, Israel</Address>
    <Latitude>32.0624</Latitude>
    <Longitude>34.7719</Longitude>
    <Active>true</Active>
    <MaximumDistance>3</MaximumDistance>
    <Role>Volunteer</Role>
    <Type>Aerial</Type>
  </Volunteer>
  <Volunteer>
    <Id>681829065</Id>
    <Name>Shira Hadad</Name>
    <Phone>0581714920</Phone>
    <Mail>shirahadad@gmail.com</Mail>
    <Password>qA1.n)^N</Password>
    <Address>22 Derech HaShalom, Givatayim, Israel</Address>
    <Latitude>32.0697</Latitude>
    <Longitude>34.8106</Longitude>
    <Active>true</Active>
    <MaximumDistance>9</MaximumDistance>
    <Role>Volunteer</Role>
    <Type>Aerial</Type>
  </Volunteer>
  <Volunteer>
    <Id>291713105</Id>
    <Name>Lior Oren</Name>
    <Phone>0542894371</Phone>
    <Mail>liororen@gmail.com</Mail>
    <Password>bK4$lg{L</Password>
    <Address>8 HaMelacha St, Netanya, Israel</Address>
    <Latitude>32.322</Latitude>
    <Longitude>34.8576</Longitude>
    <Active>false</Active>
    <MaximumDistance>4</MaximumDistance>
    <Role>Volunteer</Role>
    <Type>Aerial</Type>
  </Volunteer>
  <Volunteer>
    <Id>121306013</Id>
    <Name>Roni Peretz</Name>
    <Phone>0584676407</Phone>
    <Mail>roniperetz@gmail.com</Mail>
    <Password>kH1)r4)F</Password>
    <Address>55 HaAtzmaut Blvd, Bat Yam, Israel</Address>
    <Latitude>32.0171</Latitude>
    <Longitude>34.7518</Longitude>
    <Active>false</Active>
    <MaximumDistance>3</MaximumDistance>
    <Role>Volunteer</Role>
    <Type>Aerial</Type>
  </Volunteer>
  <Volunteer>
    <Id>871265492</Id>
    <Name>Yaakov Azulay</Name>
    <Phone>0508454570</Phone>
    <Mail>yaakovazulay@gmail.com</Mail>
    <Password>fG6%uNrS</Password>
    <Address>12 Shaul HaMelech Blvd, Tel Aviv, Israel</Address>
    <Latitude>32.0736</Latitude>
    <Longitude>34.7822</Longitude>
    <Active>false</Active>
    <MaximumDistance>8</MaximumDistance>
    <Role>Volunteer</Role>
    <Type>Aerial</Type>
  </Volunteer>
  <Volunteer>
    <Id>114780042</Id>
    <Name>Eden Dayan</Name>
    <Phone>0549110008</Phone>
    <Mail>edendayan@gmail.com</Mail>
    <Password>wM2$^!u)</Password>
    <Address>7 Keren Hayesod St, Jerusalem, Israel</Address>
    <Latitude>31.7768</Latitude>
    <Longitude>35.2201</Longitude>
    <Active>false</Active>
    <MaximumDistance>5</MaximumDistance>
    <Role>Volunteer</Role>
    <Type>Aerial</Type>
  </Volunteer>
  <Volunteer>
    <Id>187078910</Id>
    <Name>Talia Mor</Name>
    <Phone>0544166128</Phone>
    <Mail>taliamor@gmail.com</Mail>
    <Password>lG6#lyG#</Password>
    <Address>3 Begin Rd, Ramat Gan, Israel</Address>
    <Latitude>32.0732</Latitude>
    <Longitude>34.8123</Longitude>
    <Active>false</Active>
    <MaximumDistance>6</MaximumDistance>
    <Role>Volunteer</Role>
    <Type>Aerial</Type>
  </Volunteer>
</ArrayOfVolunteer>