<?xml version="1.0" encoding="utf-8"?>
<ArrayOfVolunteer xmlns:xsi="http://www.w3.org/2001/XMLSchema-instance" xmlns:xsd="http://www.w3.org/2001/XMLSchema">
  <Volunteer>
    <Id>123456782</Id>
    <Name>Amit Cohen</Name>
    <Phone>0523434909</Phone>
    <Mail>amitcohen@gmail.com</Mail>
    <Password>12!@MAnager</Password>
    <Address>Herzl St 10, Tel Aviv, 6523701</Address>
    <Latitude>32.066158</Latitude>
    <Longitude>34.779808</Longitude>
    <Active>true</Active>
    <MaximumDistance>4</MaximumDistance>
    <Role>Manager</Role>
    <Type>Aerial</Type>
  </Volunteer>
  <Volunteer>
    <Id>130441991</Id>
    <Name>Noa Levi</Name>
    <Phone>0588170729</Phone>
    <Mail>noalevi@gmail.com</Mail>
    <Password>wO3)U@*%</Password>
    <Address>Ben Gurion St 5, Ramat Gan, 5222002</Address>
    <Latitude>32.082271</Latitude>
    <Longitude>34.812548</Longitude>
    <Active>true</Active>
    <MaximumDistance>2</MaximumDistance>
    <Role>Volunteer</Role>
    <Type>Aerial</Type>
  </Volunteer>
  <Volunteer>
    <Id>517932356</Id>
    <Name>Yonatan Mizrahi</Name>
    <Phone>0547106382</Phone>
    <Mail>yonatanmizrahi@gmail.com</Mail>
    <Password>hI5@Xq2z</Password>
    <Address>Dizengoff St 25, Tel Aviv, 6311701</Address>
    <Latitude>32.08048</Latitude>
    <Longitude>34.774989</Longitude>
    <Active>true</Active>
    <MaximumDistance>7</MaximumDistance>
    <Role>Volunteer</Role>
    <Type>Aerial</Type>
  </Volunteer>
  <Volunteer>
    <Id>168285682</Id>
    <Name>Maya Azulay</Name>
    <Phone>0529527661</Phone>
    <Mail>mayaazulay@gmail.com</Mail>
    <Password>xH3),I!D</Password>
    <Address>Allenby St 40, Haifa, 3313302</Address>
    <Latitude>32.818409</Latitude>
    <Longitude>34.988507</Longitude>
    <Active>true</Active>
    <MaximumDistance>7</MaximumDistance>
    <Role>Volunteer</Role>
    <Type>Aerial</Type>
  </Volunteer>
  <Volunteer>
    <Id>765265558</Id>
    <Name>Daniel Gold</Name>
    <Phone>0531499676</Phone>
    <Mail>danielgold@gmail.com</Mail>
    <Password>qH5!2a%D</Password>
    <Address>Jaffa St 60, Jerusalem, 9434101</Address>
    <Latitude>31.784217</Latitude>
    <Longitude>35.223391</Longitude>
    <Active>true</Active>
    <MaximumDistance>1</MaximumDistance>
    <Role>Volunteer</Role>
    <Type>Aerial</Type>
  </Volunteer>
  <Volunteer>
    <Id>116700600</Id>
    <Name>Hila Shalom</Name>
    <Phone>0547821407</Phone>
    <Mail>hilashalom@gmail.com</Mail>
    <Password>qN4(,501</Password>
    <Address>Rothschild Blvd 16, Tel Aviv, 6688112</Address>
    <Latitude>32.063922</Latitude>
    <Longitude>34.771805</Longitude>
    <Active>true</Active>
    <MaximumDistance>5</MaximumDistance>
    <Role>Volunteer</Role>
    <Type>Aerial</Type>
  </Volunteer>
  <Volunteer>
    <Id>155774235</Id>
    <Name>Tomer Kaplan</Name>
    <Phone>0528987799</Phone>
    <Mail>tomerkaplan@gmail.com</Mail>
    <Password>zB7!"qvb</Password>
    <Address>Weizmann St 12, Kfar Saba, 4428104</Address>
    <Latitude>32.175034</Latitude>
    <Longitude>34.906552</Longitude>
    <Active>true</Active>
    <MaximumDistance>2</MaximumDistance>
    <Role>Volunteer</Role>
    <Type>Aerial</Type>
  </Volunteer>
  <Volunteer>
    <Id>691328348</Id>
    <Name>Yael Ben-David</Name>
    <Phone>0535490876</Phone>
    <Mail>yaelben-david@gmail.com</Mail>
    <Password>jL3(fx7B</Password>
    <Address>HaNasi St 8, Herzliya, 4650403</Address>
    <Latitude>32.166313</Latitude>
    <Longitude>34.842972</Longitude>
    <Active>true</Active>
    <MaximumDistance>8</MaximumDistance>
    <Role>Volunteer</Role>
    <Type>Aerial</Type>
  </Volunteer>
  <Volunteer>
    <Id>542932843</Id>
    <Name>Eitan Sade</Name>
    <Phone>0537665149</Phone>
    <Mail>eitansade@gmail.com</Mail>
    <Password>hN6@k}E"</Password>
    <Address>Sokolov St 30, Holon, 5831801</Address>
    <Latitude>32.014046</Latitude>
    <Longitude>34.772101</Longitude>
    <Active>true</Active>
    <MaximumDistance>8</MaximumDistance>
    <Role>Volunteer</Role>
    <Type>Aerial</Type>
  </Volunteer>
  <Volunteer>
    <Id>451943898</Id>
    <Name>Shira Hadad</Name>
    <Phone>0541856119</Phone>
    <Mail>shirahadad@gmail.com</Mail>
    <Password>eG7?Hcq0</Password>
    <Address>Ben Yehuda St 100, Tel Aviv, 6347511</Address>
    <Latitude>32.089771</Latitude>
    <Longitude>34.773922</Longitude>
    <Active>true</Active>
    <MaximumDistance>3</MaximumDistance>
    <Role>Volunteer</Role>
    <Type>Aerial</Type>
  </Volunteer>
  <Volunteer>
    <Id>581476447</Id>
    <Name>Lior Oren</Name>
    <Phone>0506190094</Phone>
    <Mail>liororen@gmail.com</Mail>
    <Password>xV4!czu#</Password>
    <Address>Ehad HaAm St 50, Beersheba, 8455802</Address>
    <Latitude>31.25181</Latitude>
    <Longitude>34.79146</Longitude>
    <Active>false</Active>
    <MaximumDistance>0</MaximumDistance>
    <Role>Volunteer</Role>
    <Type>Aerial</Type>
  </Volunteer>
  <Volunteer>
    <Id>423031996</Id>
    <Name>Roni Peretz</Name>
    <Phone>0500816584</Phone>
    <Mail>roniperetz@gmail.com</Mail>
    <Password>jM2%k!cn</Password>
    <Address>Herzliya St 15, Netanya, 4241102</Address>
    <Latitude>32.328516</Latitude>
    <Longitude>34.853196</Longitude>
    <Active>false</Active>
    <MaximumDistance>6</MaximumDistance>
    <Role>Volunteer</Role>
    <Type>Aerial</Type>
  </Volunteer>
  <Volunteer>
    <Id>872508650</Id>
    <Name>Yaakov Azulay</Name>
    <Phone>0580066702</Phone>
    <Mail>yaakovazulay@gmail.com</Mail>
    <Password>mH7{N(L2</Password>
    <Address>Keren HaYesod St 22, Ashdod, 7728203</Address>
    <Latitude>31.802418</Latitude>
    <Longitude>34.641665</Longitude>
    <Active>false</Active>
    <MaximumDistance>6</MaximumDistance>
    <Role>Volunteer</Role>
    <Type>Aerial</Type>
  </Volunteer>
  <Volunteer>
    <Id>205195548</Id>
    <Name>Eden Dayan</Name>
    <Phone>0506236878</Phone>
    <Mail>edendayan@gmail.com</Mail>
    <Password>lB0%DJDt</Password>
    <Address>Herzl St 45, Rishon LeZion, 7522001</Address>
    <Latitude>31.969633</Latitude>
    <Longitude>34.80439</Longitude>
    <Active>false</Active>
    <MaximumDistance>5</MaximumDistance>
    <Role>Volunteer</Role>
    <Type>Aerial</Type>
  </Volunteer>
  <Volunteer>
    <Id>937481000</Id>
    <Name>Talia Mor</Name>
    <Phone>0537586834</Phone>
    <Mail>taliamor@gmail.com</Mail>
    <Password>xK0{,f%C</Password>
    <Address>Moshe Dayan St 3, Ashkelon, 7878203</Address>
    <Latitude>31.669258</Latitude>
    <Longitude>34.574262</Longitude>
    <Active>false</Active>
    <MaximumDistance>6</MaximumDistance>
    <Role>Volunteer</Role>
    <Type>Aerial</Type>
  </Volunteer>
</ArrayOfVolunteer>