<?xml version="1.0" encoding="utf-8"?>
<ArrayOfVolunteer xmlns:xsi="http://www.w3.org/2001/XMLSchema-instance" xmlns:xsd="http://www.w3.org/2001/XMLSchema">
  <Volunteer>
    <Id>221744251</Id>
    <Name>Amit Cohen</Name>
    <Phone>0559851519</Phone>
    <Mail>amitcohen@gmail.com</Mail>
    <Password>mvbAFKC</Password>
    <Address>Herzl St 10, Tel Aviv, 6523701</Address>
    <Latitude>32.066158</Latitude>
    <Longitude>34.779808</Longitude>
    <Active>true</Active>
    <MaximumDistance>7</MaximumDistance>
    <Role>Manager</Role>
    <Type>Aerial</Type>
  </Volunteer>
  <Volunteer>
    <Id>307049480</Id>
    <Name>Noa Levi</Name>
    <Phone>0520594606</Phone>
    <Mail>noalevi@gmail.com</Mail>
    <Password>bhz95XI</Password>
    <Address>Ben Gurion St 5, Ramat Gan, 5222002</Address>
    <Latitude>32.082271</Latitude>
    <Longitude>34.812548</Longitude>
    <Active>true</Active>
    <MaximumDistance>4</MaximumDistance>
    <Role>Volunteer</Role>
    <Type>Aerial</Type>
  </Volunteer>
  <Volunteer>
    <Id>322084729</Id>
    <Name>Yonatan Mizrahi</Name>
    <Phone>0553922036</Phone>
    <Mail>yonatanmizrahi@gmail.com</Mail>
    <Password>ztdyBXY</Password>
    <Address>Dizengoff St 25, Tel Aviv, 6311701</Address>
    <Latitude>32.08048</Latitude>
    <Longitude>34.774989</Longitude>
    <Active>true</Active>
    <MaximumDistance>6</MaximumDistance>
    <Role>Volunteer</Role>
    <Type>Aerial</Type>
  </Volunteer>
  <Volunteer>
    <Id>270268528</Id>
    <Name>Maya Azulay</Name>
    <Phone>0526420836</Phone>
    <Mail>mayaazulay@gmail.com</Mail>
    <Password>U53mw4R</Password>
    <Address>Allenby St 40, Haifa, 3313302</Address>
    <Latitude>32.818409</Latitude>
    <Longitude>34.988507</Longitude>
    <Active>true</Active>
    <MaximumDistance>3</MaximumDistance>
    <Role>Volunteer</Role>
    <Type>Aerial</Type>
  </Volunteer>
  <Volunteer>
    <Id>283284999</Id>
    <Name>Daniel Gold</Name>
    <Phone>0528913007</Phone>
    <Mail>danielgold@gmail.com</Mail>
    <Password>lVGtDmT</Password>
    <Address>Jaffa St 60, Jerusalem, 9434101</Address>
    <Latitude>31.784217</Latitude>
    <Longitude>35.223391</Longitude>
    <Active>true</Active>
    <MaximumDistance>3</MaximumDistance>
    <Role>Volunteer</Role>
    <Type>Aerial</Type>
  </Volunteer>
  <Volunteer>
    <Id>322004821</Id>
    <Name>Hila Shalom</Name>
    <Phone>0508073575</Phone>
    <Mail>hilashalom@gmail.com</Mail>
    <Password>aRmmGWB</Password>
    <Address>Rothschild Blvd 16, Tel Aviv, 6688112</Address>
    <Latitude>32.063922</Latitude>
    <Longitude>34.771805</Longitude>
    <Active>true</Active>
    <MaximumDistance>5</MaximumDistance>
    <Role>Volunteer</Role>
    <Type>Aerial</Type>
  </Volunteer>
  <Volunteer>
    <Id>216347622</Id>
    <Name>Tomer Kaplan</Name>
    <Phone>0550739937</Phone>
    <Mail>tomerkaplan@gmail.com</Mail>
    <Password>dWW28Wp</Password>
    <Address>Weizmann St 12, Kfar Saba, 4428104</Address>
    <Latitude>32.175034</Latitude>
    <Longitude>34.906552</Longitude>
    <Active>true</Active>
    <MaximumDistance>4</MaximumDistance>
    <Role>Volunteer</Role>
    <Type>Aerial</Type>
  </Volunteer>
  <Volunteer>
    <Id>336633236</Id>
    <Name>Yael Ben-David</Name>
    <Phone>0542327405</Phone>
    <Mail>yaelben-david@gmail.com</Mail>
    <Password>DbGAVrA</Password>
    <Address>HaNasi St 8, Herzliya, 4650403</Address>
    <Latitude>32.166313</Latitude>
    <Longitude>34.842972</Longitude>
    <Active>true</Active>
    <MaximumDistance>8</MaximumDistance>
    <Role>Volunteer</Role>
    <Type>Aerial</Type>
  </Volunteer>
  <Volunteer>
    <Id>234273035</Id>
    <Name>Eitan Sade</Name>
    <Phone>0552564312</Phone>
    <Mail>eitansade@gmail.com</Mail>
    <Password>EMaQFYp</Password>
    <Address>Sokolov St 30, Holon, 5831801</Address>
    <Latitude>32.014046</Latitude>
    <Longitude>34.772101</Longitude>
    <Active>true</Active>
    <MaximumDistance>5</MaximumDistance>
    <Role>Volunteer</Role>
    <Type>Aerial</Type>
  </Volunteer>
  <Volunteer>
    <Id>392478733</Id>
    <Name>Shira Hadad</Name>
    <Phone>0541051054</Phone>
    <Mail>shirahadad@gmail.com</Mail>
    <Password>WNR2YFI</Password>
    <Address>Ben Yehuda St 100, Tel Aviv, 6347511</Address>
    <Latitude>32.089771</Latitude>
    <Longitude>34.773922</Longitude>
    <Active>true</Active>
    <MaximumDistance>1</MaximumDistance>
    <Role>Volunteer</Role>
    <Type>Aerial</Type>
  </Volunteer>
  <Volunteer>
    <Id>222500489</Id>
    <Name>Lior Oren</Name>
    <Phone>0552825766</Phone>
    <Mail>liororen@gmail.com</Mail>
    <Password>4yaJS8u</Password>
    <Address>Ehad HaAm St 50, Beersheba, 8455802</Address>
    <Latitude>31.25181</Latitude>
    <Longitude>34.79146</Longitude>
    <Active>false</Active>
    <MaximumDistance>3</MaximumDistance>
    <Role>Volunteer</Role>
    <Type>Aerial</Type>
  </Volunteer>
  <Volunteer>
    <Id>267851396</Id>
    <Name>Roni Peretz</Name>
    <Phone>0506525405</Phone>
    <Mail>roniperetz@gmail.com</Mail>
    <Password>xXYmcnQ</Password>
    <Address>Herzliya St 15, Netanya, 4241102</Address>
    <Latitude>32.328516</Latitude>
    <Longitude>34.853196</Longitude>
    <Active>false</Active>
    <MaximumDistance>2</MaximumDistance>
    <Role>Volunteer</Role>
    <Type>Aerial</Type>
  </Volunteer>
  <Volunteer>
    <Id>341823526</Id>
    <Name>Yaakov Azulay</Name>
    <Phone>0540814100</Phone>
    <Mail>yaakovazulay@gmail.com</Mail>
    <Password>7MNgPAA</Password>
    <Address>Keren HaYesod St 22, Ashdod, 7728203</Address>
    <Latitude>31.802418</Latitude>
    <Longitude>34.641665</Longitude>
    <Active>false</Active>
    <MaximumDistance>1</MaximumDistance>
    <Role>Volunteer</Role>
    <Type>Aerial</Type>
  </Volunteer>
  <Volunteer>
    <Id>391492788</Id>
    <Name>Eden Dayan</Name>
    <Phone>0509943815</Phone>
    <Mail>edendayan@gmail.com</Mail>
    <Password>J6CKNQC</Password>
    <Address>Herzl St 45, Rishon LeZion, 7522001</Address>
    <Latitude>31.969633</Latitude>
    <Longitude>34.80439</Longitude>
    <Active>false</Active>
    <MaximumDistance>3</MaximumDistance>
    <Role>Volunteer</Role>
    <Type>Aerial</Type>
  </Volunteer>
  <Volunteer>
    <Id>336449966</Id>
    <Name>Talia Mor</Name>
    <Phone>0551645723</Phone>
    <Mail>taliamor@gmail.com</Mail>
    <Password>8VXNecA</Password>
    <Address>Moshe Dayan St 3, Ashkelon, 7878203</Address>
    <Latitude>31.669258</Latitude>
    <Longitude>34.574262</Longitude>
    <Active>false</Active>
    <MaximumDistance>4</MaximumDistance>
    <Role>Volunteer</Role>
    <Type>Aerial</Type>
  </Volunteer>
</ArrayOfVolunteer>