<?xml version="1.0" encoding="utf-8"?>
<ArrayOfVolunteer xmlns:xsi="http://www.w3.org/2001/XMLSchema-instance" xmlns:xsd="http://www.w3.org/2001/XMLSchema">
  <Volunteer>
    <Id>112533245</Id>
    <Name>Amit Cohen</Name>
    <Phone>0538595347</Phone>
    <Mail>amitcohen@gmail.com</Mail>
    <Password>jK2{!%W7</Password>
    <Address>Herzl St 10, Tel Aviv, 6523701</Address>
    <Latitude>32.066158</Latitude>
    <Longitude>34.779808</Longitude>
    <Active>true</Active>
    <MaximumDistance>4</MaximumDistance>
    <Role>Manager</Role>
    <Type>Aerial</Type>
  </Volunteer>
  <Volunteer>
    <Id>124530981</Id>
    <Name>Noa Levi</Name>
    <Phone>0538133662</Phone>
    <Mail>noalevi@gmail.com</Mail>
    <Password>zG0"YWw9</Password>
    <Address>Ben Gurion St 5, Ramat Gan, 5222002</Address>
    <Latitude>32.082271</Latitude>
    <Longitude>34.812548</Longitude>
    <Active>true</Active>
    <MaximumDistance>4</MaximumDistance>
    <Role>Volunteer</Role>
    <Type>Aerial</Type>
  </Volunteer>
  <Volunteer>
    <Id>700420938</Id>
    <Name>Yonatan Mizrahi</Name>
    <Phone>0589475000</Phone>
    <Mail>yonatanmizrahi@gmail.com</Mail>
    <Password>mY1#dgqF</Password>
    <Address>Dizengoff St 25, Tel Aviv, 6311701</Address>
    <Latitude>32.08048</Latitude>
    <Longitude>34.774989</Longitude>
    <Active>true</Active>
    <MaximumDistance>1</MaximumDistance>
    <Role>Volunteer</Role>
    <Type>Aerial</Type>
  </Volunteer>
  <Volunteer>
    <Id>676781370</Id>
    <Name>Maya Azulay</Name>
    <Phone>0588920824</Phone>
    <Mail>mayaazulay@gmail.com</Mail>
    <Password>gF3%PWku</Password>
    <Address>Allenby St 40, Haifa, 3313302</Address>
    <Latitude>32.818409</Latitude>
    <Longitude>34.988507</Longitude>
    <Active>true</Active>
    <MaximumDistance>8</MaximumDistance>
    <Role>Volunteer</Role>
    <Type>Aerial</Type>
  </Volunteer>
  <Volunteer>
    <Id>789397494</Id>
    <Name>Daniel Gold</Name>
    <Phone>0522140037</Phone>
    <Mail>danielgold@gmail.com</Mail>
    <Password>pY1?m%E4</Password>
    <Address>Jaffa St 60, Jerusalem, 9434101</Address>
    <Latitude>31.784217</Latitude>
    <Longitude>35.223391</Longitude>
    <Active>true</Active>
    <MaximumDistance>4</MaximumDistance>
    <Role>Volunteer</Role>
    <Type>Aerial</Type>
  </Volunteer>
  <Volunteer>
    <Id>618173785</Id>
    <Name>Hila Shalom</Name>
    <Phone>0583084522</Phone>
    <Mail>hilashalom@gmail.com</Mail>
    <Password>gE9"&gt;bxY</Password>
    <Address>Rothschild Blvd 16, Tel Aviv, 6688112</Address>
    <Latitude>32.063922</Latitude>
    <Longitude>34.771805</Longitude>
    <Active>true</Active>
    <MaximumDistance>0</MaximumDistance>
    <Role>Volunteer</Role>
    <Type>Aerial</Type>
  </Volunteer>
  <Volunteer>
    <Id>341477461</Id>
    <Name>Tomer Kaplan</Name>
    <Phone>0509132247</Phone>
    <Mail>tomerkaplan@gmail.com</Mail>
    <Password>aN8#V&lt;H6</Password>
    <Address>Weizmann St 12, Kfar Saba, 4428104</Address>
    <Latitude>32.175034</Latitude>
    <Longitude>34.906552</Longitude>
    <Active>true</Active>
    <MaximumDistance>7</MaximumDistance>
    <Role>Volunteer</Role>
    <Type>Aerial</Type>
  </Volunteer>
  <Volunteer>
    <Id>815033303</Id>
    <Name>Yael Ben-David</Name>
    <Phone>0557890208</Phone>
    <Mail>yaelben-david@gmail.com</Mail>
    <Password>vL4&lt;sq7x</Password>
    <Address>HaNasi St 8, Herzliya, 4650403</Address>
    <Latitude>32.166313</Latitude>
    <Longitude>34.842972</Longitude>
    <Active>true</Active>
    <MaximumDistance>0</MaximumDistance>
    <Role>Volunteer</Role>
    <Type>Aerial</Type>
  </Volunteer>
  <Volunteer>
    <Id>706330065</Id>
    <Name>Eitan Sade</Name>
    <Phone>0585346883</Phone>
    <Mail>eitansade@gmail.com</Mail>
    <Password>wV9@7$vT</Password>
    <Address>Sokolov St 30, Holon, 5831801</Address>
    <Latitude>32.014046</Latitude>
    <Longitude>34.772101</Longitude>
    <Active>true</Active>
    <MaximumDistance>2</MaximumDistance>
    <Role>Volunteer</Role>
    <Type>Aerial</Type>
  </Volunteer>
  <Volunteer>
    <Id>916302797</Id>
    <Name>Shira Hadad</Name>
    <Phone>0505293517</Phone>
    <Mail>shirahadad@gmail.com</Mail>
    <Password>dQ5#Yn#b</Password>
    <Address>Ben Yehuda St 100, Tel Aviv, 6347511</Address>
    <Latitude>32.089771</Latitude>
    <Longitude>34.773922</Longitude>
    <Active>true</Active>
    <MaximumDistance>1</MaximumDistance>
    <Role>Volunteer</Role>
    <Type>Aerial</Type>
  </Volunteer>
  <Volunteer>
    <Id>350848511</Id>
    <Name>Lior Oren</Name>
    <Phone>0539648201</Phone>
    <Mail>liororen@gmail.com</Mail>
    <Password>dS6&lt;bzuo</Password>
    <Address>Ehad HaAm St 50, Beersheba, 8455802</Address>
    <Latitude>31.25181</Latitude>
    <Longitude>34.79146</Longitude>
    <Active>false</Active>
    <MaximumDistance>7</MaximumDistance>
    <Role>Volunteer</Role>
    <Type>Aerial</Type>
  </Volunteer>
  <Volunteer>
    <Id>108617234</Id>
    <Name>Roni Peretz</Name>
    <Phone>0544188027</Phone>
    <Mail>roniperetz@gmail.com</Mail>
    <Password>oR4)moIa</Password>
    <Address>Herzliya St 15, Netanya, 4241102</Address>
    <Latitude>32.328516</Latitude>
    <Longitude>34.853196</Longitude>
    <Active>false</Active>
    <MaximumDistance>2</MaximumDistance>
    <Role>Volunteer</Role>
    <Type>Aerial</Type>
  </Volunteer>
  <Volunteer>
    <Id>347971954</Id>
    <Name>Yaakov Azulay</Name>
    <Phone>0555605558</Phone>
    <Mail>yaakovazulay@gmail.com</Mail>
    <Password>qW8}0%CS</Password>
    <Address>Keren HaYesod St 22, Ashdod, 7728203</Address>
    <Latitude>31.802418</Latitude>
    <Longitude>34.641665</Longitude>
    <Active>false</Active>
    <MaximumDistance>6</MaximumDistance>
    <Role>Volunteer</Role>
    <Type>Aerial</Type>
  </Volunteer>
  <Volunteer>
    <Id>532629672</Id>
    <Name>Eden Dayan</Name>
    <Phone>0542889324</Phone>
    <Mail>edendayan@gmail.com</Mail>
    <Password>gD8?LVj{</Password>
    <Address>Herzl St 45, Rishon LeZion, 7522001</Address>
    <Latitude>31.969633</Latitude>
    <Longitude>34.80439</Longitude>
    <Active>false</Active>
    <MaximumDistance>7</MaximumDistance>
    <Role>Volunteer</Role>
    <Type>Aerial</Type>
  </Volunteer>
  <Volunteer>
    <Id>519993059</Id>
    <Name>Talia Mor</Name>
    <Phone>0580646662</Phone>
    <Mail>taliamor@gmail.com</Mail>
    <Password>eU4&amp;?(ti</Password>
    <Address>Moshe Dayan St 3, Ashkelon, 7878203</Address>
    <Latitude>31.669258</Latitude>
    <Longitude>34.574262</Longitude>
    <Active>false</Active>
    <MaximumDistance>6</MaximumDistance>
    <Role>Volunteer</Role>
    <Type>Aerial</Type>
  </Volunteer>
</ArrayOfVolunteer>