<?xml version="1.0" encoding="utf-8"?>
<ArrayOfVolunteer xmlns:xsi="http://www.w3.org/2001/XMLSchema-instance" xmlns:xsd="http://www.w3.org/2001/XMLSchema">
  <Volunteer>
    <Id>330991054</Id>
    <Name>Amit Cohen</Name>
    <Phone>0531281198</Phone>
    <Mail>amitcohen@gmail.com</Mail>
    <Password>hU7Uw5s</Password>
    <Address>Herzl St 10, Tel Aviv, 6523701</Address>
    <Latitude>32.066158</Latitude>
    <Longitude>34.779808</Longitude>
    <Active>true</Active>
    <MaximumDistance>8</MaximumDistance>
    <Role>Manager</Role>
    <Type>Aerial</Type>
  </Volunteer>
  <Volunteer>
    <Id>332745405</Id>
    <Name>Noa Levi</Name>
    <Phone>0587864965</Phone>
    <Mail>noalevi@gmail.com</Mail>
    <Password>DLrSWKh</Password>
    <Address>Ben Gurion St 5, Ramat Gan, 5222002</Address>
    <Latitude>32.082271</Latitude>
    <Longitude>34.812548</Longitude>
    <Active>true</Active>
    <MaximumDistance>4</MaximumDistance>
    <Role>Volunteer</Role>
    <Type>Aerial</Type>
  </Volunteer>
  <Volunteer>
    <Id>237567380</Id>
    <Name>Yonatan Mizrahi</Name>
    <Phone>0552736717</Phone>
    <Mail>yonatanmizrahi@gmail.com</Mail>
    <Password>RSyeXjU</Password>
    <Address>Dizengoff St 25, Tel Aviv, 6311701</Address>
    <Latitude>32.08048</Latitude>
    <Longitude>34.774989</Longitude>
    <Active>true</Active>
    <MaximumDistance>1</MaximumDistance>
    <Role>Volunteer</Role>
    <Type>Aerial</Type>
  </Volunteer>
  <Volunteer>
    <Id>335865873</Id>
    <Name>Maya Azulay</Name>
    <Phone>0550029963</Phone>
    <Mail>mayaazulay@gmail.com</Mail>
    <Password>Vh8qg7A</Password>
    <Address>Allenby St 40, Haifa, 3313302</Address>
    <Latitude>32.818409</Latitude>
    <Longitude>34.988507</Longitude>
    <Active>true</Active>
    <MaximumDistance>5</MaximumDistance>
    <Role>Volunteer</Role>
    <Type>Aerial</Type>
  </Volunteer>
  <Volunteer>
    <Id>356131349</Id>
    <Name>Daniel Gold</Name>
    <Phone>0589380565</Phone>
    <Mail>danielgold@gmail.com</Mail>
    <Password>1Ds1ovl</Password>
    <Address>Jaffa St 60, Jerusalem, 9434101</Address>
    <Latitude>31.784217</Latitude>
    <Longitude>35.223391</Longitude>
    <Active>true</Active>
    <MaximumDistance>7</MaximumDistance>
    <Role>Volunteer</Role>
    <Type>Aerial</Type>
  </Volunteer>
  <Volunteer>
    <Id>386424548</Id>
    <Name>Hila Shalom</Name>
    <Phone>0553955432</Phone>
    <Mail>hilashalom@gmail.com</Mail>
    <Password>JmPwIE4</Password>
    <Address>Rothschild Blvd 16, Tel Aviv, 6688112</Address>
    <Latitude>32.063922</Latitude>
    <Longitude>34.771805</Longitude>
    <Active>true</Active>
    <MaximumDistance>9</MaximumDistance>
    <Role>Volunteer</Role>
    <Type>Aerial</Type>
  </Volunteer>
  <Volunteer>
    <Id>214095888</Id>
    <Name>Tomer Kaplan</Name>
    <Phone>0503718273</Phone>
    <Mail>tomerkaplan@gmail.com</Mail>
    <Password>sIlUbtH</Password>
    <Address>Weizmann St 12, Kfar Saba, 4428104</Address>
    <Latitude>32.175034</Latitude>
    <Longitude>34.906552</Longitude>
    <Active>true</Active>
    <MaximumDistance>0</MaximumDistance>
    <Role>Volunteer</Role>
    <Type>Aerial</Type>
  </Volunteer>
  <Volunteer>
    <Id>379019735</Id>
    <Name>Yael Ben-David</Name>
    <Phone>0500586575</Phone>
    <Mail>yaelben-david@gmail.com</Mail>
    <Password>3GGrs8n</Password>
    <Address>HaNasi St 8, Herzliya, 4650403</Address>
    <Latitude>32.166313</Latitude>
    <Longitude>34.842972</Longitude>
    <Active>true</Active>
    <MaximumDistance>2</MaximumDistance>
    <Role>Volunteer</Role>
    <Type>Aerial</Type>
  </Volunteer>
  <Volunteer>
    <Id>347480961</Id>
    <Name>Eitan Sade</Name>
    <Phone>0555755169</Phone>
    <Mail>eitansade@gmail.com</Mail>
    <Password>oosU8Vx</Password>
    <Address>Sokolov St 30, Holon, 5831801</Address>
    <Latitude>32.014046</Latitude>
    <Longitude>34.772101</Longitude>
    <Active>true</Active>
    <MaximumDistance>4</MaximumDistance>
    <Role>Volunteer</Role>
    <Type>Aerial</Type>
  </Volunteer>
  <Volunteer>
    <Id>215181349</Id>
    <Name>Shira Hadad</Name>
    <Phone>0552481737</Phone>
    <Mail>shirahadad@gmail.com</Mail>
    <Password>tcSjm14</Password>
    <Address>Ben Yehuda St 100, Tel Aviv, 6347511</Address>
    <Latitude>32.089771</Latitude>
    <Longitude>34.773922</Longitude>
    <Active>true</Active>
    <MaximumDistance>0</MaximumDistance>
    <Role>Volunteer</Role>
    <Type>Aerial</Type>
  </Volunteer>
  <Volunteer>
    <Id>324370724</Id>
    <Name>Lior Oren</Name>
    <Phone>0505309990</Phone>
    <Mail>liororen@gmail.com</Mail>
    <Password>dwXKKn0</Password>
    <Address>Ehad HaAm St 50, Beersheba, 8455802</Address>
    <Latitude>31.25181</Latitude>
    <Longitude>34.79146</Longitude>
    <Active>false</Active>
    <MaximumDistance>0</MaximumDistance>
    <Role>Volunteer</Role>
    <Type>Aerial</Type>
  </Volunteer>
  <Volunteer>
    <Id>267069919</Id>
    <Name>Roni Peretz</Name>
    <Phone>0533060957</Phone>
    <Mail>roniperetz@gmail.com</Mail>
    <Password>JFNmDT2</Password>
    <Address>Herzliya St 15, Netanya, 4241102</Address>
    <Latitude>32.328516</Latitude>
    <Longitude>34.853196</Longitude>
    <Active>false</Active>
    <MaximumDistance>5</MaximumDistance>
    <Role>Volunteer</Role>
    <Type>Aerial</Type>
  </Volunteer>
  <Volunteer>
    <Id>212201645</Id>
    <Name>Yaakov Azulay</Name>
    <Phone>0533933127</Phone>
    <Mail>yaakovazulay@gmail.com</Mail>
    <Password>jnbEYV2</Password>
    <Address>Keren HaYesod St 22, Ashdod, 7728203</Address>
    <Latitude>31.802418</Latitude>
    <Longitude>34.641665</Longitude>
    <Active>false</Active>
    <MaximumDistance>7</MaximumDistance>
    <Role>Volunteer</Role>
    <Type>Aerial</Type>
  </Volunteer>
  <Volunteer>
    <Id>273682504</Id>
    <Name>Eden Dayan</Name>
    <Phone>0583922888</Phone>
    <Mail>edendayan@gmail.com</Mail>
    <Password>t3GWoXI</Password>
    <Address>Herzl St 45, Rishon LeZion, 7522001</Address>
    <Latitude>31.969633</Latitude>
    <Longitude>34.80439</Longitude>
    <Active>false</Active>
    <MaximumDistance>0</MaximumDistance>
    <Role>Volunteer</Role>
    <Type>Aerial</Type>
  </Volunteer>
  <Volunteer>
    <Id>288072363</Id>
    <Name>Talia Mor</Name>
    <Phone>0547192545</Phone>
    <Mail>taliamor@gmail.com</Mail>
    <Password>6JOg7vl</Password>
    <Address>Moshe Dayan St 3, Ashkelon, 7878203</Address>
    <Latitude>31.669258</Latitude>
    <Longitude>34.574262</Longitude>
    <Active>false</Active>
    <MaximumDistance>7</MaximumDistance>
    <Role>Volunteer</Role>
    <Type>Aerial</Type>
  </Volunteer>
</ArrayOfVolunteer>