<?xml version="1.0" encoding="utf-8"?>
<ArrayOfVolunteer xmlns:xsi="http://www.w3.org/2001/XMLSchema-instance" xmlns:xsd="http://www.w3.org/2001/XMLSchema">
  <Volunteer>
    <Id>296897194</Id>
    <Name>Amit Cohen</Name>
    <Phone>0509302960</Phone>
    <Mail>amitcohen@gmail.com</Mail>
    <Password>hTzpGSv</Password>
    <Address>Herzl St 10, Tel Aviv, 6523701</Address>
    <Latitude>32.066158</Latitude>
    <Longitude>34.779808</Longitude>
    <Active>true</Active>
    <MaximumDistance>9</MaximumDistance>
    <Role>Manager</Role>
    <Type>Aerial</Type>
  </Volunteer>
  <Volunteer>
    <Id>294054864</Id>
    <Name>Noa Levi</Name>
    <Phone>0535045964</Phone>
    <Mail>noalevi@gmail.com</Mail>
    <Password>SgEfIAU</Password>
    <Address>Ben Gurion St 5, Ramat Gan, 5222002</Address>
    <Latitude>32.082271</Latitude>
    <Longitude>34.812548</Longitude>
    <Active>true</Active>
    <MaximumDistance>4</MaximumDistance>
    <Role>Volunteer</Role>
    <Type>Aerial</Type>
  </Volunteer>
  <Volunteer>
    <Id>307839826</Id>
    <Name>Yonatan Mizrahi</Name>
    <Phone>0583211777</Phone>
    <Mail>yonatanmizrahi@gmail.com</Mail>
    <Password>EcyBell</Password>
    <Address>Dizengoff St 25, Tel Aviv, 6311701</Address>
    <Latitude>32.08048</Latitude>
    <Longitude>34.774989</Longitude>
    <Active>true</Active>
    <MaximumDistance>2</MaximumDistance>
    <Role>Volunteer</Role>
    <Type>Aerial</Type>
  </Volunteer>
  <Volunteer>
    <Id>312915577</Id>
    <Name>Maya Azulay</Name>
    <Phone>0542775734</Phone>
    <Mail>mayaazulay@gmail.com</Mail>
    <Password>5yHrcit</Password>
    <Address>Allenby St 40, Haifa, 3313302</Address>
    <Latitude>32.818409</Latitude>
    <Longitude>34.988507</Longitude>
    <Active>true</Active>
    <MaximumDistance>6</MaximumDistance>
    <Role>Volunteer</Role>
    <Type>Aerial</Type>
  </Volunteer>
  <Volunteer>
    <Id>358380195</Id>
    <Name>Daniel Gold</Name>
    <Phone>0539638625</Phone>
    <Mail>danielgold@gmail.com</Mail>
    <Password>C6NTOE6</Password>
    <Address>Jaffa St 60, Jerusalem, 9434101</Address>
    <Latitude>31.784217</Latitude>
    <Longitude>35.223391</Longitude>
    <Active>true</Active>
    <MaximumDistance>8</MaximumDistance>
    <Role>Volunteer</Role>
    <Type>Aerial</Type>
  </Volunteer>
  <Volunteer>
    <Id>257111878</Id>
    <Name>Hila Shalom</Name>
    <Phone>0530174658</Phone>
    <Mail>hilashalom@gmail.com</Mail>
    <Password>1DXdODb</Password>
    <Address>Rothschild Blvd 16, Tel Aviv, 6688112</Address>
    <Latitude>32.063922</Latitude>
    <Longitude>34.771805</Longitude>
    <Active>true</Active>
    <MaximumDistance>5</MaximumDistance>
    <Role>Volunteer</Role>
    <Type>Aerial</Type>
  </Volunteer>
  <Volunteer>
    <Id>325288657</Id>
    <Name>Tomer Kaplan</Name>
    <Phone>0502752747</Phone>
    <Mail>tomerkaplan@gmail.com</Mail>
    <Password>teoEXnT</Password>
    <Address>Weizmann St 12, Kfar Saba, 4428104</Address>
    <Latitude>32.175034</Latitude>
    <Longitude>34.906552</Longitude>
    <Active>true</Active>
    <MaximumDistance>2</MaximumDistance>
    <Role>Volunteer</Role>
    <Type>Aerial</Type>
  </Volunteer>
  <Volunteer>
    <Id>347272983</Id>
    <Name>Yael Ben-David</Name>
    <Phone>0549869158</Phone>
    <Mail>yaelben-david@gmail.com</Mail>
    <Password>v2AvRAE</Password>
    <Address>HaNasi St 8, Herzliya, 4650403</Address>
    <Latitude>32.166313</Latitude>
    <Longitude>34.842972</Longitude>
    <Active>true</Active>
    <MaximumDistance>2</MaximumDistance>
    <Role>Volunteer</Role>
    <Type>Aerial</Type>
  </Volunteer>
  <Volunteer>
    <Id>347333455</Id>
    <Name>Eitan Sade</Name>
    <Phone>0506603018</Phone>
    <Mail>eitansade@gmail.com</Mail>
    <Password>BS0LTtT</Password>
    <Address>Sokolov St 30, Holon, 5831801</Address>
    <Latitude>32.014046</Latitude>
    <Longitude>34.772101</Longitude>
    <Active>true</Active>
    <MaximumDistance>6</MaximumDistance>
    <Role>Volunteer</Role>
    <Type>Aerial</Type>
  </Volunteer>
  <Volunteer>
    <Id>211227617</Id>
    <Name>Shira Hadad</Name>
    <Phone>0525504523</Phone>
    <Mail>shirahadad@gmail.com</Mail>
    <Password>c0sKUEW</Password>
    <Address>Ben Yehuda St 100, Tel Aviv, 6347511</Address>
    <Latitude>32.089771</Latitude>
    <Longitude>34.773922</Longitude>
    <Active>true</Active>
    <MaximumDistance>2</MaximumDistance>
    <Role>Volunteer</Role>
    <Type>Aerial</Type>
  </Volunteer>
  <Volunteer>
    <Id>362445749</Id>
    <Name>Lior Oren</Name>
    <Phone>0547213124</Phone>
    <Mail>liororen@gmail.com</Mail>
    <Password>AXfMgeu</Password>
    <Address>Ehad HaAm St 50, Beersheba, 8455802</Address>
    <Latitude>31.25181</Latitude>
    <Longitude>34.79146</Longitude>
    <Active>false</Active>
    <MaximumDistance>7</MaximumDistance>
    <Role>Volunteer</Role>
    <Type>Aerial</Type>
  </Volunteer>
  <Volunteer>
    <Id>300348603</Id>
    <Name>Roni Peretz</Name>
    <Phone>0532138116</Phone>
    <Mail>roniperetz@gmail.com</Mail>
    <Password>ZK7DWl5</Password>
    <Address>Herzliya St 15, Netanya, 4241102</Address>
    <Latitude>32.328516</Latitude>
    <Longitude>34.853196</Longitude>
    <Active>false</Active>
    <MaximumDistance>7</MaximumDistance>
    <Role>Volunteer</Role>
    <Type>Aerial</Type>
  </Volunteer>
  <Volunteer>
    <Id>309463543</Id>
    <Name>Yaakov Azulay</Name>
    <Phone>0548173716</Phone>
    <Mail>yaakovazulay@gmail.com</Mail>
    <Password>rqrjtKg</Password>
    <Address>Keren HaYesod St 22, Ashdod, 7728203</Address>
    <Latitude>31.802418</Latitude>
    <Longitude>34.641665</Longitude>
    <Active>false</Active>
    <MaximumDistance>0</MaximumDistance>
    <Role>Volunteer</Role>
    <Type>Aerial</Type>
  </Volunteer>
  <Volunteer>
    <Id>262615395</Id>
    <Name>Eden Dayan</Name>
    <Phone>0520098561</Phone>
    <Mail>edendayan@gmail.com</Mail>
    <Password>sUEsydS</Password>
    <Address>Herzl St 45, Rishon LeZion, 7522001</Address>
    <Latitude>31.969633</Latitude>
    <Longitude>34.80439</Longitude>
    <Active>false</Active>
    <MaximumDistance>9</MaximumDistance>
    <Role>Volunteer</Role>
    <Type>Aerial</Type>
  </Volunteer>
  <Volunteer>
    <Id>289450100</Id>
    <Name>Talia Mor</Name>
    <Phone>0550967490</Phone>
    <Mail>taliamor@gmail.com</Mail>
    <Password>wfpLEfr</Password>
    <Address>Moshe Dayan St 3, Ashkelon, 7878203</Address>
    <Latitude>31.669258</Latitude>
    <Longitude>34.574262</Longitude>
    <Active>false</Active>
    <MaximumDistance>5</MaximumDistance>
    <Role>Volunteer</Role>
    <Type>Aerial</Type>
  </Volunteer>
</ArrayOfVolunteer>