<?xml version="1.0" encoding="utf-8"?>
<ArrayOfVolunteer xmlns:xsi="http://www.w3.org/2001/XMLSchema-instance" xmlns:xsd="http://www.w3.org/2001/XMLSchema">
  <Volunteer>
    <Id>930158241</Id>
    <Name>Amit Cohen</Name>
    <Phone>0534830544</Phone>
    <Mail>amitcohen@gmail.com</Mail>
    <Password>aK8?fEZk</Password>
    <Address>Herzl St 10, Tel Aviv, 6523701</Address>
    <Latitude>32.066158</Latitude>
    <Longitude>34.779808</Longitude>
    <Active>true</Active>
    <MaximumDistance>5</MaximumDistance>
    <Role>Manager</Role>
    <Type>Aerial</Type>
  </Volunteer>
  <Volunteer>
    <Id>218516854</Id>
    <Name>Noa Levi</Name>
    <Phone>0530189305</Phone>
    <Mail>noalevi@gmail.com</Mail>
    <Password>iZ5*TS"t</Password>
    <Address>Ben Gurion St 5, Ramat Gan, 5222002</Address>
    <Latitude>32.082271</Latitude>
    <Longitude>34.812548</Longitude>
    <Active>true</Active>
    <MaximumDistance>1</MaximumDistance>
    <Role>Volunteer</Role>
    <Type>Aerial</Type>
  </Volunteer>
  <Volunteer>
    <Id>322090739</Id>
    <Name>Yonatan Mizrahi</Name>
    <Phone>0533111264</Phone>
    <Mail>yonatanmizrahi@gmail.com</Mail>
    <Password>kV2*!ro^</Password>
    <Address>Dizengoff St 25, Tel Aviv, 6311701</Address>
    <Latitude>32.08048</Latitude>
    <Longitude>34.774989</Longitude>
    <Active>true</Active>
    <MaximumDistance>0</MaximumDistance>
    <Role>Volunteer</Role>
    <Type>Aerial</Type>
  </Volunteer>
  <Volunteer>
    <Id>971533500</Id>
    <Name>Maya Azulay</Name>
    <Phone>0582463650</Phone>
    <Mail>mayaazulay@gmail.com</Mail>
    <Password>hE2|#me7</Password>
    <Address>Allenby St 40, Haifa, 3313302</Address>
    <Latitude>32.818409</Latitude>
    <Longitude>34.988507</Longitude>
    <Active>true</Active>
    <MaximumDistance>7</MaximumDistance>
    <Role>Volunteer</Role>
    <Type>Aerial</Type>
  </Volunteer>
  <Volunteer>
    <Id>187671078</Id>
    <Name>Daniel Gold</Name>
    <Phone>0548575334</Phone>
    <Mail>danielgold@gmail.com</Mail>
    <Password>mE9)B$tS</Password>
    <Address>Jaffa St 60, Jerusalem, 9434101</Address>
    <Latitude>31.784217</Latitude>
    <Longitude>35.223391</Longitude>
    <Active>true</Active>
    <MaximumDistance>2</MaximumDistance>
    <Role>Volunteer</Role>
    <Type>Aerial</Type>
  </Volunteer>
  <Volunteer>
    <Id>423227891</Id>
    <Name>Hila Shalom</Name>
    <Phone>0521669449</Phone>
    <Mail>hilashalom@gmail.com</Mail>
    <Password>nF5*T2TS</Password>
    <Address>Rothschild Blvd 16, Tel Aviv, 6688112</Address>
    <Latitude>32.063922</Latitude>
    <Longitude>34.771805</Longitude>
    <Active>true</Active>
    <MaximumDistance>5</MaximumDistance>
    <Role>Volunteer</Role>
    <Type>Aerial</Type>
  </Volunteer>
  <Volunteer>
    <Id>916942535</Id>
    <Name>Tomer Kaplan</Name>
    <Phone>0541864737</Phone>
    <Mail>tomerkaplan@gmail.com</Mail>
    <Password>gL2(Xr?x</Password>
    <Address>Weizmann St 12, Kfar Saba, 4428104</Address>
    <Latitude>32.175034</Latitude>
    <Longitude>34.906552</Longitude>
    <Active>true</Active>
    <MaximumDistance>1</MaximumDistance>
    <Role>Volunteer</Role>
    <Type>Aerial</Type>
  </Volunteer>
  <Volunteer>
    <Id>563839190</Id>
    <Name>Yael Ben-David</Name>
    <Phone>0557966774</Phone>
    <Mail>yaelben-david@gmail.com</Mail>
    <Password>iT9.JmJW</Password>
    <Address>HaNasi St 8, Herzliya, 4650403</Address>
    <Latitude>32.166313</Latitude>
    <Longitude>34.842972</Longitude>
    <Active>true</Active>
    <MaximumDistance>7</MaximumDistance>
    <Role>Volunteer</Role>
    <Type>Aerial</Type>
  </Volunteer>
  <Volunteer>
    <Id>950439950</Id>
    <Name>Eitan Sade</Name>
    <Phone>0556155722</Phone>
    <Mail>eitansade@gmail.com</Mail>
    <Password>aY1,@7%8</Password>
    <Address>Sokolov St 30, Holon, 5831801</Address>
    <Latitude>32.014046</Latitude>
    <Longitude>34.772101</Longitude>
    <Active>true</Active>
    <MaximumDistance>4</MaximumDistance>
    <Role>Volunteer</Role>
    <Type>Aerial</Type>
  </Volunteer>
  <Volunteer>
    <Id>280442302</Id>
    <Name>Shira Hadad</Name>
    <Phone>0549557434</Phone>
    <Mail>shirahadad@gmail.com</Mail>
    <Password>gF7$VLo@</Password>
    <Address>Ben Yehuda St 100, Tel Aviv, 6347511</Address>
    <Latitude>32.089771</Latitude>
    <Longitude>34.773922</Longitude>
    <Active>true</Active>
    <MaximumDistance>6</MaximumDistance>
    <Role>Volunteer</Role>
    <Type>Aerial</Type>
  </Volunteer>
  <Volunteer>
    <Id>392535233</Id>
    <Name>Lior Oren</Name>
    <Phone>0581894534</Phone>
    <Mail>liororen@gmail.com</Mail>
    <Password>fX0(1SEZ</Password>
    <Address>Ehad HaAm St 50, Beersheba, 8455802</Address>
    <Latitude>31.25181</Latitude>
    <Longitude>34.79146</Longitude>
    <Active>false</Active>
    <MaximumDistance>5</MaximumDistance>
    <Role>Volunteer</Role>
    <Type>Aerial</Type>
  </Volunteer>
  <Volunteer>
    <Id>628434359</Id>
    <Name>Roni Peretz</Name>
    <Phone>0542063330</Phone>
    <Mail>roniperetz@gmail.com</Mail>
    <Password>zS2$@vb3</Password>
    <Address>Herzliya St 15, Netanya, 4241102</Address>
    <Latitude>32.328516</Latitude>
    <Longitude>34.853196</Longitude>
    <Active>false</Active>
    <MaximumDistance>5</MaximumDistance>
    <Role>Volunteer</Role>
    <Type>Aerial</Type>
  </Volunteer>
  <Volunteer>
    <Id>572798015</Id>
    <Name>Yaakov Azulay</Name>
    <Phone>0557238707</Phone>
    <Mail>yaakovazulay@gmail.com</Mail>
    <Password>tO9*Oh42</Password>
    <Address>Keren HaYesod St 22, Ashdod, 7728203</Address>
    <Latitude>31.802418</Latitude>
    <Longitude>34.641665</Longitude>
    <Active>false</Active>
    <MaximumDistance>1</MaximumDistance>
    <Role>Volunteer</Role>
    <Type>Aerial</Type>
  </Volunteer>
  <Volunteer>
    <Id>328063995</Id>
    <Name>Eden Dayan</Name>
    <Phone>0525864219</Phone>
    <Mail>edendayan@gmail.com</Mail>
    <Password>eB8|%gOw</Password>
    <Address>Herzl St 45, Rishon LeZion, 7522001</Address>
    <Latitude>31.969633</Latitude>
    <Longitude>34.80439</Longitude>
    <Active>false</Active>
    <MaximumDistance>4</MaximumDistance>
    <Role>Volunteer</Role>
    <Type>Aerial</Type>
  </Volunteer>
  <Volunteer>
    <Id>406580886</Id>
    <Name>Talia Mor</Name>
    <Phone>0524345841</Phone>
    <Mail>taliamor@gmail.com</Mail>
    <Password>oT7}9319</Password>
    <Address>Moshe Dayan St 3, Ashkelon, 7878203</Address>
    <Latitude>31.669258</Latitude>
    <Longitude>34.574262</Longitude>
    <Active>false</Active>
    <MaximumDistance>7</MaximumDistance>
    <Role>Volunteer</Role>
    <Type>Aerial</Type>
  </Volunteer>
</ArrayOfVolunteer>