<?xml version="1.0" encoding="utf-8"?>
<ArrayOfVolunteer xmlns:xsi="http://www.w3.org/2001/XMLSchema-instance" xmlns:xsd="http://www.w3.org/2001/XMLSchema">
  <Volunteer>
    <Id>300366545</Id>
    <Name>Amit Cohen</Name>
    <Phone>0554170729</Phone>
    <Mail>amitcohen@gmail.com</Mail>
    <Password>6Ean3Pg</Password>
    <Address>Herzl St 10, Tel Aviv, 6523701</Address>
    <Latitude>32.066158</Latitude>
    <Longitude>34.779808</Longitude>
    <Active>true</Active>
    <MaximumDistance>4</MaximumDistance>
    <Role>Management</Role>
    <Type>Aerial</Type>
  </Volunteer>
  <Volunteer>
    <Id>237070923</Id>
    <Name>Noa Levi</Name>
    <Phone>0547326090</Phone>
    <Mail>noalevi@gmail.com</Mail>
    <Password>PmgcvCr</Password>
    <Address>Ben Gurion St 5, Ramat Gan, 5222002</Address>
    <Latitude>32.082271</Latitude>
    <Longitude>34.812548</Longitude>
    <Active>true</Active>
    <MaximumDistance>7</MaximumDistance>
    <Role>Volunteer</Role>
    <Type>Aerial</Type>
  </Volunteer>
  <Volunteer>
    <Id>202884444</Id>
    <Name>Yonatan Mizrahi</Name>
    <Phone>0553676861</Phone>
    <Mail>yonatanmizrahi@gmail.com</Mail>
    <Password>WK6ASol</Password>
    <Address>Dizengoff St 25, Tel Aviv, 6311701</Address>
    <Latitude>32.08048</Latitude>
    <Longitude>34.774989</Longitude>
    <Active>true</Active>
    <MaximumDistance>8</MaximumDistance>
    <Role>Volunteer</Role>
    <Type>Aerial</Type>
  </Volunteer>
  <Volunteer>
    <Id>372981820</Id>
    <Name>Maya Azulay</Name>
    <Phone>0552862806</Phone>
    <Mail>mayaazulay@gmail.com</Mail>
    <Password>IEZIlej</Password>
    <Address>Allenby St 40, Haifa, 3313302</Address>
    <Latitude>32.818409</Latitude>
    <Longitude>34.988507</Longitude>
    <Active>true</Active>
    <MaximumDistance>6</MaximumDistance>
    <Role>Volunteer</Role>
    <Type>Aerial</Type>
  </Volunteer>
  <Volunteer>
    <Id>210394885</Id>
    <Name>Daniel Gold</Name>
    <Phone>0522184892</Phone>
    <Mail>danielgold@gmail.com</Mail>
    <Password>62UbRcl</Password>
    <Address>Jaffa St 60, Jerusalem, 9434101</Address>
    <Latitude>31.784217</Latitude>
    <Longitude>35.223391</Longitude>
    <Active>true</Active>
    <MaximumDistance>8</MaximumDistance>
    <Role>Volunteer</Role>
    <Type>Aerial</Type>
  </Volunteer>
  <Volunteer>
    <Id>310015918</Id>
    <Name>Hila Shalom</Name>
    <Phone>0500164687</Phone>
    <Mail>hilashalom@gmail.com</Mail>
    <Password>1DRhdTK</Password>
    <Address>Rothschild Blvd 16, Tel Aviv, 6688112</Address>
    <Latitude>32.063922</Latitude>
    <Longitude>34.771805</Longitude>
    <Active>true</Active>
    <MaximumDistance>6</MaximumDistance>
    <Role>Volunteer</Role>
    <Type>Aerial</Type>
  </Volunteer>
  <Volunteer>
    <Id>279035525</Id>
    <Name>Tomer Kaplan</Name>
    <Phone>0523278638</Phone>
    <Mail>tomerkaplan@gmail.com</Mail>
    <Password>sdBbnSh</Password>
    <Address>Weizmann St 12, Kfar Saba, 4428104</Address>
    <Latitude>32.175034</Latitude>
    <Longitude>34.906552</Longitude>
    <Active>true</Active>
    <MaximumDistance>4</MaximumDistance>
    <Role>Volunteer</Role>
    <Type>Aerial</Type>
  </Volunteer>
  <Volunteer>
    <Id>254238993</Id>
    <Name>Yael Ben-David</Name>
    <Phone>0559076374</Phone>
    <Mail>yaelben-david@gmail.com</Mail>
    <Password>SofhEv7</Password>
    <Address>HaNasi St 8, Herzliya, 4650403</Address>
    <Latitude>32.166313</Latitude>
    <Longitude>34.842972</Longitude>
    <Active>true</Active>
    <MaximumDistance>7</MaximumDistance>
    <Role>Volunteer</Role>
    <Type>Aerial</Type>
  </Volunteer>
  <Volunteer>
    <Id>289186454</Id>
    <Name>Eitan Sade</Name>
    <Phone>0542393190</Phone>
    <Mail>eitansade@gmail.com</Mail>
    <Password>3JZaiFG</Password>
    <Address>Sokolov St 30, Holon, 5831801</Address>
    <Latitude>32.014046</Latitude>
    <Longitude>34.772101</Longitude>
    <Active>true</Active>
    <MaximumDistance>6</MaximumDistance>
    <Role>Volunteer</Role>
    <Type>Aerial</Type>
  </Volunteer>
  <Volunteer>
    <Id>208492384</Id>
    <Name>Shira Hadad</Name>
    <Phone>0541091153</Phone>
    <Mail>shirahadad@gmail.com</Mail>
    <Password>DCGN1Pz</Password>
    <Address>Ben Yehuda St 100, Tel Aviv, 6347511</Address>
    <Latitude>32.089771</Latitude>
    <Longitude>34.773922</Longitude>
    <Active>true</Active>
    <MaximumDistance>9</MaximumDistance>
    <Role>Volunteer</Role>
    <Type>Aerial</Type>
  </Volunteer>
  <Volunteer>
    <Id>349119559</Id>
    <Name>Lior Oren</Name>
    <Phone>0556678862</Phone>
    <Mail>liororen@gmail.com</Mail>
    <Password>xfblnYk</Password>
    <Address>Ehad HaAm St 50, Beersheba, 8455802</Address>
    <Latitude>31.25181</Latitude>
    <Longitude>34.79146</Longitude>
    <Active>false</Active>
    <MaximumDistance>6</MaximumDistance>
    <Role>Volunteer</Role>
    <Type>Aerial</Type>
  </Volunteer>
  <Volunteer>
    <Id>277266673</Id>
    <Name>Roni Peretz</Name>
    <Phone>0530478679</Phone>
    <Mail>roniperetz@gmail.com</Mail>
    <Password>y59JgMs</Password>
    <Address>Herzliya St 15, Netanya, 4241102</Address>
    <Latitude>32.328516</Latitude>
    <Longitude>34.853196</Longitude>
    <Active>false</Active>
    <MaximumDistance>2</MaximumDistance>
    <Role>Volunteer</Role>
    <Type>Aerial</Type>
  </Volunteer>
  <Volunteer>
    <Id>308025663</Id>
    <Name>Yaakov Azulay</Name>
    <Phone>0500527534</Phone>
    <Mail>yaakovazulay@gmail.com</Mail>
    <Password>wNTFiVa</Password>
    <Address>Keren HaYesod St 22, Ashdod, 7728203</Address>
    <Latitude>31.802418</Latitude>
    <Longitude>34.641665</Longitude>
    <Active>false</Active>
    <MaximumDistance>2</MaximumDistance>
    <Role>Volunteer</Role>
    <Type>Aerial</Type>
  </Volunteer>
  <Volunteer>
    <Id>263739556</Id>
    <Name>Eden Dayan</Name>
    <Phone>0550089635</Phone>
    <Mail>edendayan@gmail.com</Mail>
    <Password>htCpNmn</Password>
    <Address>Herzl St 45, Rishon LeZion, 7522001</Address>
    <Latitude>31.969633</Latitude>
    <Longitude>34.80439</Longitude>
    <Active>false</Active>
    <MaximumDistance>4</MaximumDistance>
    <Role>Volunteer</Role>
    <Type>Aerial</Type>
  </Volunteer>
  <Volunteer>
    <Id>305843549</Id>
    <Name>Talia Mor</Name>
    <Phone>0534636880</Phone>
    <Mail>taliamor@gmail.com</Mail>
    <Password>ezaJdS5</Password>
    <Address>Moshe Dayan St 3, Ashkelon, 7878203</Address>
    <Latitude>31.669258</Latitude>
    <Longitude>34.574262</Longitude>
    <Active>false</Active>
    <MaximumDistance>7</MaximumDistance>
    <Role>Volunteer</Role>
    <Type>Aerial</Type>
  </Volunteer>
  <Volunteer>
    <Id>329210199</Id>
    <Name>Sara</Name>
    <Phone>0507447778</Phone>
    <Mail>Sara@gmail.com</Mail>
    <Password>nfiomlkd</Password>
    <Address>nqjvkfm va</Address>
    <Latitude>34.42</Latitude>
    <Longitude>21.543</Longitude>
    <Active>true</Active>
    <MaximumDistance>2</MaximumDistance>
    <Role>Volunteer</Role>
    <Type>Aerial</Type>
  </Volunteer>
  <Volunteer>
    <Id>329210199</Id>
    <Name>mqfglff</Name>
    <Phone>fq</Phone>
    <Mail>	q</Mail>
    <Password>vqf</Password>
    <Address>4qv</Address>
    <Latitude>32</Latitude>
    <Longitude>3</Longitude>
    <Active>true</Active>
    <MaximumDistance>3</MaximumDistance>
    <Role>Volunteer</Role>
    <Type>Aerial</Type>
  </Volunteer>
</ArrayOfVolunteer>