<?xml version="1.0" encoding="utf-8"?>
<ArrayOfVolunteer xmlns:xsi="http://www.w3.org/2001/XMLSchema-instance" xmlns:xsd="http://www.w3.org/2001/XMLSchema">
  <Volunteer>
    <Id>718572712</Id>
    <Name>Noa Levi</Name>
    <Phone>0548839787</Phone>
    <Mail>noalevi@gmail.com</Mail>
    <Password>mH3"Ny)u</Password>
    <Address>Ben Gurion St 5, Ramat Gan, 5222002</Address>
    <Latitude>32.082271</Latitude>
    <Longitude>34.812548</Longitude>
    <Active>true</Active>
    <MaximumDistance>8</MaximumDistance>
    <Role>Volunteer</Role>
    <Type>Aerial</Type>
  </Volunteer>
  <Volunteer>
    <Id>430057018</Id>
    <Name>Yonatan Mizrahi</Name>
    <Phone>0533067898</Phone>
    <Mail>yonatanmizrahi@gmail.com</Mail>
    <Password>aM4|6Jyn</Password>
    <Address>Dizengoff St 25, Tel Aviv, 6311701</Address>
    <Latitude>32.08048</Latitude>
    <Longitude>34.774989</Longitude>
    <Active>true</Active>
    <MaximumDistance>9</MaximumDistance>
    <Role>Volunteer</Role>
    <Type>Aerial</Type>
  </Volunteer>
  <Volunteer>
    <Id>401657002</Id>
    <Name>Maya Azulay</Name>
    <Phone>0500444289</Phone>
    <Mail>mayaazulay@gmail.com</Mail>
    <Password>hW2,Gay"</Password>
    <Address>Allenby St 40, Haifa, 3313302</Address>
    <Latitude>32.818409</Latitude>
    <Longitude>34.988507</Longitude>
    <Active>true</Active>
    <MaximumDistance>7</MaximumDistance>
    <Role>Volunteer</Role>
    <Type>Aerial</Type>
  </Volunteer>
  <Volunteer>
    <Id>627305782</Id>
    <Name>Daniel Gold</Name>
    <Phone>0527046896</Phone>
    <Mail>danielgold@gmail.com</Mail>
    <Password>mM1(AzEl</Password>
    <Address>Jaffa St 60, Jerusalem, 9434101</Address>
    <Latitude>31.784217</Latitude>
    <Longitude>35.223391</Longitude>
    <Active>true</Active>
    <MaximumDistance>2</MaximumDistance>
    <Role>Volunteer</Role>
    <Type>Aerial</Type>
  </Volunteer>
  <Volunteer>
    <Id>680858123</Id>
    <Name>Hila Shalom</Name>
    <Phone>0549614507</Phone>
    <Mail>hilashalom@gmail.com</Mail>
    <Password>xO6^oEM}</Password>
    <Address>Rothschild Blvd 16, Tel Aviv, 6688112</Address>
    <Latitude>32.063922</Latitude>
    <Longitude>34.771805</Longitude>
    <Active>true</Active>
    <MaximumDistance>9</MaximumDistance>
    <Role>Volunteer</Role>
    <Type>Aerial</Type>
  </Volunteer>
  <Volunteer>
    <Id>679871442</Id>
    <Name>Tomer Kaplan</Name>
    <Phone>0525682368</Phone>
    <Mail>tomerkaplan@gmail.com</Mail>
    <Password>vH5,.N1i</Password>
    <Address>Weizmann St 12, Kfar Saba, 4428104</Address>
    <Latitude>32.175034</Latitude>
    <Longitude>34.906552</Longitude>
    <Active>true</Active>
    <MaximumDistance>3</MaximumDistance>
    <Role>Volunteer</Role>
    <Type>Aerial</Type>
  </Volunteer>
  <Volunteer>
    <Id>119375723</Id>
    <Name>Yael Ben-David</Name>
    <Phone>0542373841</Phone>
    <Mail>yaelben-david@gmail.com</Mail>
    <Password>dV1@n1%@</Password>
    <Address>HaNasi St 8, Herzliya, 4650403</Address>
    <Latitude>32.166313</Latitude>
    <Longitude>34.842972</Longitude>
    <Active>true</Active>
    <MaximumDistance>9</MaximumDistance>
    <Role>Volunteer</Role>
    <Type>Aerial</Type>
  </Volunteer>
  <Volunteer>
    <Id>432384345</Id>
    <Name>Eitan Sade</Name>
    <Phone>0543165338</Phone>
    <Mail>eitansade@gmail.com</Mail>
    <Password>oR3,0RdE</Password>
    <Address>Sokolov St 30, Holon, 5831801</Address>
    <Latitude>32.014046</Latitude>
    <Longitude>34.772101</Longitude>
    <Active>true</Active>
    <MaximumDistance>7</MaximumDistance>
    <Role>Volunteer</Role>
    <Type>Aerial</Type>
  </Volunteer>
  <Volunteer>
    <Id>879846392</Id>
    <Name>Shira Hadad</Name>
    <Phone>0588474797</Phone>
    <Mail>shirahadad@gmail.com</Mail>
    <Password>eM7.EvfY</Password>
    <Address>Ben Yehuda St 100, Tel Aviv, 6347511</Address>
    <Latitude>32.089771</Latitude>
    <Longitude>34.773922</Longitude>
    <Active>true</Active>
    <MaximumDistance>5</MaximumDistance>
    <Role>Volunteer</Role>
    <Type>Aerial</Type>
  </Volunteer>
  <Volunteer>
    <Id>333310787</Id>
    <Name>Lior Oren</Name>
    <Phone>0583612157</Phone>
    <Mail>liororen@gmail.com</Mail>
    <Password>rD5)LJD!</Password>
    <Address>Ehad HaAm St 50, Beersheba, 8455802</Address>
    <Latitude>31.25181</Latitude>
    <Longitude>34.79146</Longitude>
    <Active>false</Active>
    <MaximumDistance>4</MaximumDistance>
    <Role>Volunteer</Role>
    <Type>Aerial</Type>
  </Volunteer>
  <Volunteer>
    <Id>788039485</Id>
    <Name>Roni Peretz</Name>
    <Phone>0555017421</Phone>
    <Mail>roniperetz@gmail.com</Mail>
    <Password>eW2)IHjA</Password>
    <Address>Herzliya St 15, Netanya, 4241102</Address>
    <Latitude>32.328516</Latitude>
    <Longitude>34.853196</Longitude>
    <Active>false</Active>
    <MaximumDistance>9</MaximumDistance>
    <Role>Volunteer</Role>
    <Type>Aerial</Type>
  </Volunteer>
  <Volunteer>
    <Id>554976654</Id>
    <Name>Yaakov Azulay</Name>
    <Phone>0537921440</Phone>
    <Mail>yaakovazulay@gmail.com</Mail>
    <Password>kW1,@x"T</Password>
    <Address>Keren HaYesod St 22, Ashdod, 7728203</Address>
    <Latitude>31.802418</Latitude>
    <Longitude>34.641665</Longitude>
    <Active>false</Active>
    <MaximumDistance>9</MaximumDistance>
    <Role>Volunteer</Role>
    <Type>Aerial</Type>
  </Volunteer>
  <Volunteer>
    <Id>579897398</Id>
    <Name>Eden Dayan</Name>
    <Phone>0525827267</Phone>
    <Mail>edendayan@gmail.com</Mail>
    <Password>vW5.46U%</Password>
    <Address>Herzl St 45, Rishon LeZion, 7522001</Address>
    <Latitude>31.969633</Latitude>
    <Longitude>34.80439</Longitude>
    <Active>false</Active>
    <MaximumDistance>0</MaximumDistance>
    <Role>Volunteer</Role>
    <Type>Aerial</Type>
  </Volunteer>
  <Volunteer>
    <Id>761675107</Id>
    <Name>Talia Mor</Name>
    <Phone>0588618174</Phone>
    <Mail>taliamor@gmail.com</Mail>
    <Password>nI5%05el</Password>
    <Address>Moshe Dayan St 3, Ashkelon, 7878203</Address>
    <Latitude>31.669258</Latitude>
    <Longitude>34.574262</Longitude>
    <Active>false</Active>
    <MaximumDistance>3</MaximumDistance>
    <Role>Volunteer</Role>
    <Type>Aerial</Type>
  </Volunteer>
  <Volunteer>
    <Id>377680350</Id>
    <Name>Amit Cohen</Name>
    <Phone>0526842977</Phone>
    <Mail>amitcohen@gmail.com</Mail>
    <Password>uQ8?*0a0</Password>
    <Address>Herzl St 10, Tel Aviv, 6523701</Address>
    <Latitude>32.066158</Latitude>
    <Longitude>34.779808</Longitude>
    <Active>true</Active>
    <MaximumDistance>6</MaximumDistance>
    <Role>Manager</Role>
    <Type>Aerial</Type>
  </Volunteer>
  <Volunteer>
    <Id>213899412</Id>
    <Name>Hila</Name>
    <Phone>0508821677</Phone>
    <Mail>hila@gmail.com</Mail>
    <Password>Hh00!@20</Password>
    <Address>Herzl St 10, Tel Aviv, 6523701</Address>
    <Latitude>31.797499</Latitude>
    <Longitude>34.645104</Longitude>
    <Active>true</Active>
    <MaximumDistance>4</MaximumDistance>
    <Role>Manager</Role>
    <Type>Car</Type>
  </Volunteer>
</ArrayOfVolunteer>