<?xml version="1.0" encoding="utf-8"?>
<ArrayOfVolunteer xmlns:xsi="http://www.w3.org/2001/XMLSchema-instance" xmlns:xsd="http://www.w3.org/2001/XMLSchema">
  <Volunteer>
    <Id>217121177</Id>
    <Name>Noa Levi</Name>
    <Phone>0539446253</Phone>
    <Mail>noalevi@gmail.com</Mail>
    <Password>aN5,86Rq</Password>
    <Address>Ben Gurion St 5, Ramat Gan, 5222002</Address>
    <Latitude>32.082271</Latitude>
    <Longitude>34.812548</Longitude>
    <Active>true</Active>
    <MaximumDistance>0</MaximumDistance>
    <Role>Volunteer</Role>
    <Type>Aerial</Type>
  </Volunteer>
  <Volunteer>
    <Id>539478974</Id>
    <Name>Yonatan Mizrahi</Name>
    <Phone>0548341537</Phone>
    <Mail>yonatanmizrahi@gmail.com</Mail>
    <Password>kD3!GxzL</Password>
    <Address>Dizengoff St 25, Tel Aviv, 6311701</Address>
    <Latitude>32.08048</Latitude>
    <Longitude>34.774989</Longitude>
    <Active>true</Active>
    <MaximumDistance>8</MaximumDistance>
    <Role>Volunteer</Role>
    <Type>Aerial</Type>
  </Volunteer>
  <Volunteer>
    <Id>163879018</Id>
    <Name>Maya Azulay</Name>
    <Phone>0582147700</Phone>
    <Mail>mayaazulay@gmail.com</Mail>
    <Password>yD9"TIAZ</Password>
    <Address>Allenby St 40, Haifa, 3313302</Address>
    <Latitude>32.818409</Latitude>
    <Longitude>34.988507</Longitude>
    <Active>true</Active>
    <MaximumDistance>8</MaximumDistance>
    <Role>Volunteer</Role>
    <Type>Aerial</Type>
  </Volunteer>
  <Volunteer>
    <Id>497280164</Id>
    <Name>Daniel Gold</Name>
    <Phone>0585555436</Phone>
    <Mail>danielgold@gmail.com</Mail>
    <Password>iG2@bFy@</Password>
    <Address>Jaffa St 60, Jerusalem, 9434101</Address>
    <Latitude>31.784217</Latitude>
    <Longitude>35.223391</Longitude>
    <Active>true</Active>
    <MaximumDistance>8</MaximumDistance>
    <Role>Volunteer</Role>
    <Type>Aerial</Type>
  </Volunteer>
  <Volunteer>
    <Id>411854011</Id>
    <Name>Hila Shalom</Name>
    <Phone>0505173265</Phone>
    <Mail>hilashalom@gmail.com</Mail>
    <Password>xW7$ai,8</Password>
    <Address>Rothschild Blvd 16, Tel Aviv, 6688112</Address>
    <Latitude>32.063922</Latitude>
    <Longitude>34.771805</Longitude>
    <Active>true</Active>
    <MaximumDistance>4</MaximumDistance>
    <Role>Volunteer</Role>
    <Type>Aerial</Type>
  </Volunteer>
  <Volunteer>
    <Id>164343006</Id>
    <Name>Tomer Kaplan</Name>
    <Phone>0505783162</Phone>
    <Mail>tomerkaplan@gmail.com</Mail>
    <Password>sQ5(Bafv</Password>
    <Address>Weizmann St 12, Kfar Saba, 4428104</Address>
    <Latitude>32.175034</Latitude>
    <Longitude>34.906552</Longitude>
    <Active>true</Active>
    <MaximumDistance>3</MaximumDistance>
    <Role>Volunteer</Role>
    <Type>Aerial</Type>
  </Volunteer>
  <Volunteer>
    <Id>487205312</Id>
    <Name>Yael Ben-David</Name>
    <Phone>0535545046</Phone>
    <Mail>yaelben-david@gmail.com</Mail>
    <Password>wO3!rY)E</Password>
    <Address>HaNasi St 8, Herzliya, 4650403</Address>
    <Latitude>32.166313</Latitude>
    <Longitude>34.842972</Longitude>
    <Active>true</Active>
    <MaximumDistance>4</MaximumDistance>
    <Role>Volunteer</Role>
    <Type>Aerial</Type>
  </Volunteer>
  <Volunteer>
    <Id>402415293</Id>
    <Name>Eitan Sade</Name>
    <Phone>0543686985</Phone>
    <Mail>eitansade@gmail.com</Mail>
    <Password>kJ7%plUj</Password>
    <Address>Sokolov St 30, Holon, 5831801</Address>
    <Latitude>32.014046</Latitude>
    <Longitude>34.772101</Longitude>
    <Active>true</Active>
    <MaximumDistance>1</MaximumDistance>
    <Role>Volunteer</Role>
    <Type>Aerial</Type>
  </Volunteer>
  <Volunteer>
    <Id>155369838</Id>
    <Name>Shira Hadad</Name>
    <Phone>0548792360</Phone>
    <Mail>shirahadad@gmail.com</Mail>
    <Password>lS4(u}xL</Password>
    <Address>Ben Yehuda St 100, Tel Aviv, 6347511</Address>
    <Latitude>32.089771</Latitude>
    <Longitude>34.773922</Longitude>
    <Active>true</Active>
    <MaximumDistance>9</MaximumDistance>
    <Role>Volunteer</Role>
    <Type>Aerial</Type>
  </Volunteer>
  <Volunteer>
    <Id>642376958</Id>
    <Name>Lior Oren</Name>
    <Phone>0534086084</Phone>
    <Mail>liororen@gmail.com</Mail>
    <Password>mT9.yb,l</Password>
    <Address>Ehad HaAm St 50, Beersheba, 8455802</Address>
    <Latitude>31.25181</Latitude>
    <Longitude>34.79146</Longitude>
    <Active>false</Active>
    <MaximumDistance>5</MaximumDistance>
    <Role>Volunteer</Role>
    <Type>Aerial</Type>
  </Volunteer>
  <Volunteer>
    <Id>453105157</Id>
    <Name>Roni Peretz</Name>
    <Phone>0558649441</Phone>
    <Mail>roniperetz@gmail.com</Mail>
    <Password>xV2}e)km</Password>
    <Address>Herzliya St 15, Netanya, 4241102</Address>
    <Latitude>32.328516</Latitude>
    <Longitude>34.853196</Longitude>
    <Active>false</Active>
    <MaximumDistance>7</MaximumDistance>
    <Role>Volunteer</Role>
    <Type>Aerial</Type>
  </Volunteer>
  <Volunteer>
    <Id>744431248</Id>
    <Name>Yaakov Azulay</Name>
    <Phone>0522250710</Phone>
    <Mail>yaakovazulay@gmail.com</Mail>
    <Password>jC7?xTT4</Password>
    <Address>Keren HaYesod St 22, Ashdod, 7728203</Address>
    <Latitude>31.802418</Latitude>
    <Longitude>34.641665</Longitude>
    <Active>false</Active>
    <MaximumDistance>4</MaximumDistance>
    <Role>Volunteer</Role>
    <Type>Aerial</Type>
  </Volunteer>
  <Volunteer>
    <Id>300978210</Id>
    <Name>Eden Dayan</Name>
    <Phone>0557715501</Phone>
    <Mail>edendayan@gmail.com</Mail>
    <Password>jR7,z3Dy</Password>
    <Address>Herzl St 45, Rishon LeZion, 7522001</Address>
    <Latitude>31.969633</Latitude>
    <Longitude>34.80439</Longitude>
    <Active>false</Active>
    <MaximumDistance>2</MaximumDistance>
    <Role>Volunteer</Role>
    <Type>Aerial</Type>
  </Volunteer>
  <Volunteer>
    <Id>499721025</Id>
    <Name>Talia Mor</Name>
    <Phone>0559611438</Phone>
    <Mail>taliamor@gmail.com</Mail>
    <Password>tQ8??w3,</Password>
    <Address>Moshe Dayan St 3, Ashkelon, 7878203</Address>
    <Latitude>31.669258</Latitude>
    <Longitude>34.574262</Longitude>
    <Active>false</Active>
    <MaximumDistance>0</MaximumDistance>
    <Role>Volunteer</Role>
    <Type>Aerial</Type>
  </Volunteer>
  <Volunteer>
    <Id>466546926</Id>
    <Name>Amit Cohen</Name>
    <Phone>0509440566</Phone>
    <Mail>amitcohen@gmail.com</Mail>
    <Password>gQ1{LPYU</Password>
    <Address>Herzl St 10, Tel Aviv, 6523701</Address>
    <Latitude>32.066158</Latitude>
    <Longitude>34.779808</Longitude>
    <Active>true</Active>
    <MaximumDistance>9</MaximumDistance>
    <Role>Manager</Role>
    <Type>Aerial</Type>
  </Volunteer>
</ArrayOfVolunteer>