<?xml version="1.0" encoding="utf-8"?>
<ArrayOfVolunteer xmlns:xsi="http://www.w3.org/2001/XMLSchema-instance" xmlns:xsd="http://www.w3.org/2001/XMLSchema">
  <Volunteer>
    <Id>123456782</Id>
    <Name>Amit Cohen</Name>
    <Phone>0542794504</Phone>
    <Mail>amitcohen@gmail.com</Mail>
    <Password>12!@MAnager</Password>
    <Address>Herzl St 10, Tel Aviv, 6523701</Address>
    <Latitude>32.066158</Latitude>
    <Longitude>34.779808</Longitude>
    <Active>true</Active>
    <MaximumDistance>6</MaximumDistance>
    <Role>Manager</Role>
    <Type>Aerial</Type>
  </Volunteer>
  <Volunteer>
    <Id>543103345</Id>
    <Name>Noa Levi</Name>
    <Phone>0557351049</Phone>
    <Mail>noalevi@gmail.com</Mail>
    <Password>aB9$^1#a</Password>
    <Address>Ben Gurion St 5, Ramat Gan, 5222002</Address>
    <Latitude>32.082271</Latitude>
    <Longitude>34.812548</Longitude>
    <Active>true</Active>
    <MaximumDistance>0</MaximumDistance>
    <Role>Volunteer</Role>
    <Type>Aerial</Type>
  </Volunteer>
  <Volunteer>
    <Id>993033349</Id>
    <Name>Yonatan Mizrahi</Name>
    <Phone>0504370004</Phone>
    <Mail>yonatanmizrahi@gmail.com</Mail>
    <Password>hP5.OnZs</Password>
    <Address>Dizengoff St 25, Tel Aviv, 6311701</Address>
    <Latitude>32.08048</Latitude>
    <Longitude>34.774989</Longitude>
    <Active>true</Active>
    <MaximumDistance>2</MaximumDistance>
    <Role>Volunteer</Role>
    <Type>Aerial</Type>
  </Volunteer>
  <Volunteer>
    <Id>494025877</Id>
    <Name>Maya Azulay</Name>
    <Phone>0539128833</Phone>
    <Mail>mayaazulay@gmail.com</Mail>
    <Password>dL2@|BZ%</Password>
    <Address>Allenby St 40, Haifa, 3313302</Address>
    <Latitude>32.818409</Latitude>
    <Longitude>34.988507</Longitude>
    <Active>true</Active>
    <MaximumDistance>4</MaximumDistance>
    <Role>Volunteer</Role>
    <Type>Aerial</Type>
  </Volunteer>
  <Volunteer>
    <Id>553708025</Id>
    <Name>Daniel Gold</Name>
    <Phone>0505431028</Phone>
    <Mail>danielgold@gmail.com</Mail>
    <Password>yH1.OWuF</Password>
    <Address>Jaffa St 60, Jerusalem, 9434101</Address>
    <Latitude>31.784217</Latitude>
    <Longitude>35.223391</Longitude>
    <Active>true</Active>
    <MaximumDistance>5</MaximumDistance>
    <Role>Volunteer</Role>
    <Type>Aerial</Type>
  </Volunteer>
  <Volunteer>
    <Id>858530413</Id>
    <Name>Hila Shalom</Name>
    <Phone>0550883277</Phone>
    <Mail>hilashalom@gmail.com</Mail>
    <Password>tO4}RAyZ</Password>
    <Address>Rothschild Blvd 16, Tel Aviv, 6688112</Address>
    <Latitude>32.063922</Latitude>
    <Longitude>34.771805</Longitude>
    <Active>true</Active>
    <MaximumDistance>1</MaximumDistance>
    <Role>Volunteer</Role>
    <Type>Aerial</Type>
  </Volunteer>
  <Volunteer>
    <Id>322285321</Id>
    <Name>Tomer Kaplan</Name>
    <Phone>0521840262</Phone>
    <Mail>tomerkaplan@gmail.com</Mail>
    <Password>gG5,f(1w</Password>
    <Address>Weizmann St 12, Kfar Saba, 4428104</Address>
    <Latitude>32.175034</Latitude>
    <Longitude>34.906552</Longitude>
    <Active>true</Active>
    <MaximumDistance>0</MaximumDistance>
    <Role>Volunteer</Role>
    <Type>Aerial</Type>
  </Volunteer>
  <Volunteer>
    <Id>892928839</Id>
    <Name>Yael Ben-David</Name>
    <Phone>0536764412</Phone>
    <Mail>yaelben-david@gmail.com</Mail>
    <Password>mW9.g|C{</Password>
    <Address>HaNasi St 8, Herzliya, 4650403</Address>
    <Latitude>32.166313</Latitude>
    <Longitude>34.842972</Longitude>
    <Active>true</Active>
    <MaximumDistance>1</MaximumDistance>
    <Role>Volunteer</Role>
    <Type>Aerial</Type>
  </Volunteer>
  <Volunteer>
    <Id>682686464</Id>
    <Name>Eitan Sade</Name>
    <Phone>0585574274</Phone>
    <Mail>eitansade@gmail.com</Mail>
    <Password>oX5(wKDk</Password>
    <Address>Sokolov St 30, Holon, 5831801</Address>
    <Latitude>32.014046</Latitude>
    <Longitude>34.772101</Longitude>
    <Active>true</Active>
    <MaximumDistance>4</MaximumDistance>
    <Role>Volunteer</Role>
    <Type>Aerial</Type>
  </Volunteer>
  <Volunteer>
    <Id>189353253</Id>
    <Name>Shira Hadad</Name>
    <Phone>0525041572</Phone>
    <Mail>shirahadad@gmail.com</Mail>
    <Password>dQ6..V%|</Password>
    <Address>Ben Yehuda St 100, Tel Aviv, 6347511</Address>
    <Latitude>32.089771</Latitude>
    <Longitude>34.773922</Longitude>
    <Active>true</Active>
    <MaximumDistance>8</MaximumDistance>
    <Role>Volunteer</Role>
    <Type>Aerial</Type>
  </Volunteer>
  <Volunteer>
    <Id>857812499</Id>
    <Name>Lior Oren</Name>
    <Phone>0503604171</Phone>
    <Mail>liororen@gmail.com</Mail>
    <Password>sK0^QaN)</Password>
    <Address>Ehad HaAm St 50, Beersheba, 8455802</Address>
    <Latitude>31.25181</Latitude>
    <Longitude>34.79146</Longitude>
    <Active>false</Active>
    <MaximumDistance>9</MaximumDistance>
    <Role>Volunteer</Role>
    <Type>Aerial</Type>
  </Volunteer>
  <Volunteer>
    <Id>712985464</Id>
    <Name>Roni Peretz</Name>
    <Phone>0541194681</Phone>
    <Mail>roniperetz@gmail.com</Mail>
    <Password>rV9%{1bM</Password>
    <Address>Herzliya St 15, Netanya, 4241102</Address>
    <Latitude>32.328516</Latitude>
    <Longitude>34.853196</Longitude>
    <Active>false</Active>
    <MaximumDistance>1</MaximumDistance>
    <Role>Volunteer</Role>
    <Type>Aerial</Type>
  </Volunteer>
  <Volunteer>
    <Id>523811784</Id>
    <Name>Yaakov Azulay</Name>
    <Phone>0527329346</Phone>
    <Mail>yaakovazulay@gmail.com</Mail>
    <Password>lE7@#kkv</Password>
    <Address>Keren HaYesod St 22, Ashdod, 7728203</Address>
    <Latitude>31.802418</Latitude>
    <Longitude>34.641665</Longitude>
    <Active>false</Active>
    <MaximumDistance>3</MaximumDistance>
    <Role>Volunteer</Role>
    <Type>Aerial</Type>
  </Volunteer>
  <Volunteer>
    <Id>978039873</Id>
    <Name>Eden Dayan</Name>
    <Phone>0543079024</Phone>
    <Mail>edendayan@gmail.com</Mail>
    <Password>gJ2{6*3G</Password>
    <Address>Herzl St 45, Rishon LeZion, 7522001</Address>
    <Latitude>31.969633</Latitude>
    <Longitude>34.80439</Longitude>
    <Active>false</Active>
    <MaximumDistance>7</MaximumDistance>
    <Role>Volunteer</Role>
    <Type>Aerial</Type>
  </Volunteer>
  <Volunteer>
    <Id>413938820</Id>
    <Name>Talia Mor</Name>
    <Phone>0509099173</Phone>
    <Mail>taliamor@gmail.com</Mail>
    <Password>zL7}9did</Password>
    <Address>Moshe Dayan St 3, Ashkelon, 7878203</Address>
    <Latitude>31.669258</Latitude>
    <Longitude>34.574262</Longitude>
    <Active>false</Active>
    <MaximumDistance>5</MaximumDistance>
    <Role>Volunteer</Role>
    <Type>Aerial</Type>
  </Volunteer>
</ArrayOfVolunteer>