<?xml version="1.0" encoding="utf-8"?>
<ArrayOfVolunteer xmlns:xsi="http://www.w3.org/2001/XMLSchema-instance" xmlns:xsd="http://www.w3.org/2001/XMLSchema">
  <Volunteer>
    <Id>288870690</Id>
    <Name>Amit Cohen</Name>
    <Phone>0547499248</Phone>
    <Mail>amitcohen@gmail.com</Mail>
    <Password>WCBQxij</Password>
    <Address>Herzl St 10, Tel Aviv, 6523701</Address>
    <Latitude>32.066158</Latitude>
    <Longitude>34.779808</Longitude>
    <Active>true</Active>
    <MaximumDistance>9</MaximumDistance>
    <Role>Manager</Role>
    <Type>Aerial</Type>
  </Volunteer>
  <Volunteer>
    <Id>235306315</Id>
    <Name>Noa Levi</Name>
    <Phone>0543554229</Phone>
    <Mail>noalevi@gmail.com</Mail>
    <Password>dpicKUo</Password>
    <Address>Ben Gurion St 5, Ramat Gan, 5222002</Address>
    <Latitude>32.082271</Latitude>
    <Longitude>34.812548</Longitude>
    <Active>true</Active>
    <MaximumDistance>6</MaximumDistance>
    <Role>Volunteer</Role>
    <Type>Aerial</Type>
  </Volunteer>
  <Volunteer>
    <Id>273446541</Id>
    <Name>Yonatan Mizrahi</Name>
    <Phone>0540811203</Phone>
    <Mail>yonatanmizrahi@gmail.com</Mail>
    <Password>9usove3</Password>
    <Address>Dizengoff St 25, Tel Aviv, 6311701</Address>
    <Latitude>32.08048</Latitude>
    <Longitude>34.774989</Longitude>
    <Active>true</Active>
    <MaximumDistance>0</MaximumDistance>
    <Role>Volunteer</Role>
    <Type>Aerial</Type>
  </Volunteer>
  <Volunteer>
    <Id>355127791</Id>
    <Name>Maya Azulay</Name>
    <Phone>0582198697</Phone>
    <Mail>mayaazulay@gmail.com</Mail>
    <Password>vBeVViV</Password>
    <Address>Allenby St 40, Haifa, 3313302</Address>
    <Latitude>32.818409</Latitude>
    <Longitude>34.988507</Longitude>
    <Active>true</Active>
    <MaximumDistance>6</MaximumDistance>
    <Role>Volunteer</Role>
    <Type>Aerial</Type>
  </Volunteer>
  <Volunteer>
    <Id>304603471</Id>
    <Name>Daniel Gold</Name>
    <Phone>0532329078</Phone>
    <Mail>danielgold@gmail.com</Mail>
    <Password>MjeupMo</Password>
    <Address>Jaffa St 60, Jerusalem, 9434101</Address>
    <Latitude>31.784217</Latitude>
    <Longitude>35.223391</Longitude>
    <Active>true</Active>
    <MaximumDistance>6</MaximumDistance>
    <Role>Volunteer</Role>
    <Type>Aerial</Type>
  </Volunteer>
  <Volunteer>
    <Id>281053452</Id>
    <Name>Hila Shalom</Name>
    <Phone>0548752354</Phone>
    <Mail>hilashalom@gmail.com</Mail>
    <Password>PFLpNZd</Password>
    <Address>Rothschild Blvd 16, Tel Aviv, 6688112</Address>
    <Latitude>32.063922</Latitude>
    <Longitude>34.771805</Longitude>
    <Active>true</Active>
    <MaximumDistance>3</MaximumDistance>
    <Role>Volunteer</Role>
    <Type>Aerial</Type>
  </Volunteer>
  <Volunteer>
    <Id>385792974</Id>
    <Name>Tomer Kaplan</Name>
    <Phone>0552565613</Phone>
    <Mail>tomerkaplan@gmail.com</Mail>
    <Password>3oj2uMB</Password>
    <Address>Weizmann St 12, Kfar Saba, 4428104</Address>
    <Latitude>32.175034</Latitude>
    <Longitude>34.906552</Longitude>
    <Active>true</Active>
    <MaximumDistance>3</MaximumDistance>
    <Role>Volunteer</Role>
    <Type>Aerial</Type>
  </Volunteer>
  <Volunteer>
    <Id>247866427</Id>
    <Name>Yael Ben-David</Name>
    <Phone>0502426439</Phone>
    <Mail>yaelben-david@gmail.com</Mail>
    <Password>30DbPYW</Password>
    <Address>HaNasi St 8, Herzliya, 4650403</Address>
    <Latitude>32.166313</Latitude>
    <Longitude>34.842972</Longitude>
    <Active>true</Active>
    <MaximumDistance>4</MaximumDistance>
    <Role>Volunteer</Role>
    <Type>Aerial</Type>
  </Volunteer>
  <Volunteer>
    <Id>307384734</Id>
    <Name>Eitan Sade</Name>
    <Phone>0536142809</Phone>
    <Mail>eitansade@gmail.com</Mail>
    <Password>A2YnKBZ</Password>
    <Address>Sokolov St 30, Holon, 5831801</Address>
    <Latitude>32.014046</Latitude>
    <Longitude>34.772101</Longitude>
    <Active>true</Active>
    <MaximumDistance>0</MaximumDistance>
    <Role>Volunteer</Role>
    <Type>Aerial</Type>
  </Volunteer>
  <Volunteer>
    <Id>236035395</Id>
    <Name>Shira Hadad</Name>
    <Phone>0503487723</Phone>
    <Mail>shirahadad@gmail.com</Mail>
    <Password>5CY8Q5L</Password>
    <Address>Ben Yehuda St 100, Tel Aviv, 6347511</Address>
    <Latitude>32.089771</Latitude>
    <Longitude>34.773922</Longitude>
    <Active>true</Active>
    <MaximumDistance>8</MaximumDistance>
    <Role>Volunteer</Role>
    <Type>Aerial</Type>
  </Volunteer>
  <Volunteer>
    <Id>328300737</Id>
    <Name>Lior Oren</Name>
    <Phone>0580478885</Phone>
    <Mail>liororen@gmail.com</Mail>
    <Password>vFUYWEj</Password>
    <Address>Ehad HaAm St 50, Beersheba, 8455802</Address>
    <Latitude>31.25181</Latitude>
    <Longitude>34.79146</Longitude>
    <Active>false</Active>
    <MaximumDistance>4</MaximumDistance>
    <Role>Volunteer</Role>
    <Type>Aerial</Type>
  </Volunteer>
  <Volunteer>
    <Id>388099247</Id>
    <Name>Roni Peretz</Name>
    <Phone>0548433968</Phone>
    <Mail>roniperetz@gmail.com</Mail>
    <Password>CrUdKB6</Password>
    <Address>Herzliya St 15, Netanya, 4241102</Address>
    <Latitude>32.328516</Latitude>
    <Longitude>34.853196</Longitude>
    <Active>false</Active>
    <MaximumDistance>1</MaximumDistance>
    <Role>Volunteer</Role>
    <Type>Aerial</Type>
  </Volunteer>
  <Volunteer>
    <Id>345290306</Id>
    <Name>Yaakov Azulay</Name>
    <Phone>0588568658</Phone>
    <Mail>yaakovazulay@gmail.com</Mail>
    <Password>ja95zZ0</Password>
    <Address>Keren HaYesod St 22, Ashdod, 7728203</Address>
    <Latitude>31.802418</Latitude>
    <Longitude>34.641665</Longitude>
    <Active>false</Active>
    <MaximumDistance>4</MaximumDistance>
    <Role>Volunteer</Role>
    <Type>Aerial</Type>
  </Volunteer>
  <Volunteer>
    <Id>398421286</Id>
    <Name>Eden Dayan</Name>
    <Phone>0524582769</Phone>
    <Mail>edendayan@gmail.com</Mail>
    <Password>j08F2zI</Password>
    <Address>Herzl St 45, Rishon LeZion, 7522001</Address>
    <Latitude>31.969633</Latitude>
    <Longitude>34.80439</Longitude>
    <Active>false</Active>
    <MaximumDistance>8</MaximumDistance>
    <Role>Volunteer</Role>
    <Type>Aerial</Type>
  </Volunteer>
  <Volunteer>
    <Id>275446461</Id>
    <Name>Talia Mor</Name>
    <Phone>0524717707</Phone>
    <Mail>taliamor@gmail.com</Mail>
    <Password>Zp69Jmr</Password>
    <Address>Moshe Dayan St 3, Ashkelon, 7878203</Address>
    <Latitude>31.669258</Latitude>
    <Longitude>34.574262</Longitude>
    <Active>false</Active>
    <MaximumDistance>5</MaximumDistance>
    <Role>Volunteer</Role>
    <Type>Aerial</Type>
  </Volunteer>
  <Volunteer>
    <Id>213899412</Id>
    <Name>hila</Name>
    <Phone />
    <Mail />
    <Password />
    <Address />
    <Latitude>0</Latitude>
    <Longitude>0</Longitude>
    <Active>true</Active>
    <MaximumDistance>4</MaximumDistance>
    <Role>Volunteer</Role>
    <Type>Aerial</Type>
  </Volunteer>
  <Volunteer>
    <Id>329210199</Id>
    <Name>david</Name>
    <Phone>0504117273</Phone>
    <Mail />
    <Password>123$%^Sa</Password>
    <Address />
    <Latitude>0</Latitude>
    <Longitude>0</Longitude>
    <Active>true</Active>
    <MaximumDistance>2</MaximumDistance>
    <Role>Volunteer</Role>
    <Type>Walking</Type>
  </Volunteer>
</ArrayOfVolunteer>