<?xml version="1.0" encoding="utf-8"?>
<ArrayOfVolunteer xmlns:xsi="http://www.w3.org/2001/XMLSchema-instance" xmlns:xsd="http://www.w3.org/2001/XMLSchema">
  <Volunteer>
    <Id>211259677</Id>
    <Name>Amit Cohen</Name>
    <Phone>0521772088</Phone>
    <Mail>amitcohen@gmail.com</Mail>
    <Password>VSIfL73</Password>
    <Address>Herzl St 10, Tel Aviv, 6523701</Address>
    <Latitude>32.066158</Latitude>
    <Longitude>34.779808</Longitude>
    <Active>true</Active>
    <MaximumDistance>9</MaximumDistance>
    <Role>Manager</Role>
    <Type>Aerial</Type>
  </Volunteer>
  <Volunteer>
    <Id>348401592</Id>
    <Name>Noa Levi</Name>
    <Phone>0588220621</Phone>
    <Mail>noalevi@gmail.com</Mail>
    <Password>CvAEcyl</Password>
    <Address>Ben Gurion St 5, Ramat Gan, 5222002</Address>
    <Latitude>32.082271</Latitude>
    <Longitude>34.812548</Longitude>
    <Active>true</Active>
    <MaximumDistance>2</MaximumDistance>
    <Role>Volunteer</Role>
    <Type>Aerial</Type>
  </Volunteer>
  <Volunteer>
    <Id>328326511</Id>
    <Name>Yonatan Mizrahi</Name>
    <Phone>0585774743</Phone>
    <Mail>yonatanmizrahi@gmail.com</Mail>
    <Password>6D5KiTh</Password>
    <Address>Dizengoff St 25, Tel Aviv, 6311701</Address>
    <Latitude>32.08048</Latitude>
    <Longitude>34.774989</Longitude>
    <Active>true</Active>
    <MaximumDistance>7</MaximumDistance>
    <Role>Volunteer</Role>
    <Type>Aerial</Type>
  </Volunteer>
  <Volunteer>
    <Id>289593099</Id>
    <Name>Maya Azulay</Name>
    <Phone>0589257014</Phone>
    <Mail>mayaazulay@gmail.com</Mail>
    <Password>PEPBt6A</Password>
    <Address>Allenby St 40, Haifa, 3313302</Address>
    <Latitude>32.818409</Latitude>
    <Longitude>34.988507</Longitude>
    <Active>true</Active>
    <MaximumDistance>5</MaximumDistance>
    <Role>Volunteer</Role>
    <Type>Aerial</Type>
  </Volunteer>
  <Volunteer>
    <Id>361646941</Id>
    <Name>Daniel Gold</Name>
    <Phone>0534942858</Phone>
    <Mail>danielgold@gmail.com</Mail>
    <Password>eU4mxCN</Password>
    <Address>Jaffa St 60, Jerusalem, 9434101</Address>
    <Latitude>31.784217</Latitude>
    <Longitude>35.223391</Longitude>
    <Active>true</Active>
    <MaximumDistance>9</MaximumDistance>
    <Role>Volunteer</Role>
    <Type>Aerial</Type>
  </Volunteer>
  <Volunteer>
    <Id>265224415</Id>
    <Name>Hila Shalom</Name>
    <Phone>0551024139</Phone>
    <Mail>hilashalom@gmail.com</Mail>
    <Password>yTtbcCp</Password>
    <Address>Rothschild Blvd 16, Tel Aviv, 6688112</Address>
    <Latitude>32.063922</Latitude>
    <Longitude>34.771805</Longitude>
    <Active>true</Active>
    <MaximumDistance>1</MaximumDistance>
    <Role>Volunteer</Role>
    <Type>Aerial</Type>
  </Volunteer>
  <Volunteer>
    <Id>296519949</Id>
    <Name>Tomer Kaplan</Name>
    <Phone>0529387668</Phone>
    <Mail>tomerkaplan@gmail.com</Mail>
    <Password>cLAYQIT</Password>
    <Address>Weizmann St 12, Kfar Saba, 4428104</Address>
    <Latitude>32.175034</Latitude>
    <Longitude>34.906552</Longitude>
    <Active>true</Active>
    <MaximumDistance>7</MaximumDistance>
    <Role>Volunteer</Role>
    <Type>Aerial</Type>
  </Volunteer>
  <Volunteer>
    <Id>249321866</Id>
    <Name>Yael Ben-David</Name>
    <Phone>0521415451</Phone>
    <Mail>yaelben-david@gmail.com</Mail>
    <Password>tdv6YwG</Password>
    <Address>HaNasi St 8, Herzliya, 4650403</Address>
    <Latitude>32.166313</Latitude>
    <Longitude>34.842972</Longitude>
    <Active>true</Active>
    <MaximumDistance>6</MaximumDistance>
    <Role>Volunteer</Role>
    <Type>Aerial</Type>
  </Volunteer>
  <Volunteer>
    <Id>286429695</Id>
    <Name>Eitan Sade</Name>
    <Phone>0558192742</Phone>
    <Mail>eitansade@gmail.com</Mail>
    <Password>iNdiKh4</Password>
    <Address>Sokolov St 30, Holon, 5831801</Address>
    <Latitude>32.014046</Latitude>
    <Longitude>34.772101</Longitude>
    <Active>true</Active>
    <MaximumDistance>4</MaximumDistance>
    <Role>Volunteer</Role>
    <Type>Aerial</Type>
  </Volunteer>
  <Volunteer>
    <Id>294683117</Id>
    <Name>Shira Hadad</Name>
    <Phone>0525123436</Phone>
    <Mail>shirahadad@gmail.com</Mail>
    <Password>K7M5FeI</Password>
    <Address>Ben Yehuda St 100, Tel Aviv, 6347511</Address>
    <Latitude>32.089771</Latitude>
    <Longitude>34.773922</Longitude>
    <Active>true</Active>
    <MaximumDistance>6</MaximumDistance>
    <Role>Volunteer</Role>
    <Type>Aerial</Type>
  </Volunteer>
  <Volunteer>
    <Id>355852287</Id>
    <Name>Lior Oren</Name>
    <Phone>0506991249</Phone>
    <Mail>liororen@gmail.com</Mail>
    <Password>8ZqtCnA</Password>
    <Address>Ehad HaAm St 50, Beersheba, 8455802</Address>
    <Latitude>31.25181</Latitude>
    <Longitude>34.79146</Longitude>
    <Active>false</Active>
    <MaximumDistance>7</MaximumDistance>
    <Role>Volunteer</Role>
    <Type>Aerial</Type>
  </Volunteer>
  <Volunteer>
    <Id>201345513</Id>
    <Name>Roni Peretz</Name>
    <Phone>0523267987</Phone>
    <Mail>roniperetz@gmail.com</Mail>
    <Password>YCb87jT</Password>
    <Address>Herzliya St 15, Netanya, 4241102</Address>
    <Latitude>32.328516</Latitude>
    <Longitude>34.853196</Longitude>
    <Active>false</Active>
    <MaximumDistance>3</MaximumDistance>
    <Role>Volunteer</Role>
    <Type>Aerial</Type>
  </Volunteer>
  <Volunteer>
    <Id>320930193</Id>
    <Name>Yaakov Azulay</Name>
    <Phone>0553061513</Phone>
    <Mail>yaakovazulay@gmail.com</Mail>
    <Password>5004WqE</Password>
    <Address>Keren HaYesod St 22, Ashdod, 7728203</Address>
    <Latitude>31.802418</Latitude>
    <Longitude>34.641665</Longitude>
    <Active>false</Active>
    <MaximumDistance>3</MaximumDistance>
    <Role>Volunteer</Role>
    <Type>Aerial</Type>
  </Volunteer>
  <Volunteer>
    <Id>297556232</Id>
    <Name>Eden Dayan</Name>
    <Phone>0529021663</Phone>
    <Mail>edendayan@gmail.com</Mail>
    <Password>ADmQ2KF</Password>
    <Address>Herzl St 45, Rishon LeZion, 7522001</Address>
    <Latitude>31.969633</Latitude>
    <Longitude>34.80439</Longitude>
    <Active>false</Active>
    <MaximumDistance>8</MaximumDistance>
    <Role>Volunteer</Role>
    <Type>Aerial</Type>
  </Volunteer>
  <Volunteer>
    <Id>287800000</Id>
    <Name>Talia Mor</Name>
    <Phone>0582810526</Phone>
    <Mail>taliamor@gmail.com</Mail>
    <Password>YtoF6ps</Password>
    <Address>Moshe Dayan St 3, Ashkelon, 7878203</Address>
    <Latitude>31.669258</Latitude>
    <Longitude>34.574262</Longitude>
    <Active>false</Active>
    <MaximumDistance>7</MaximumDistance>
    <Role>Volunteer</Role>
    <Type>Aerial</Type>
  </Volunteer>
  <Volunteer>
	<Id>329210188</Id>
	<Name>sara</Name>
	<Phone>0504117777</Phone>
	<Mail>d@gmail.com</Mail>
	<Password>123!@#Da</Password>
	<Address />
	<Latitude>0</Latitude>
	<Longitude>0</Longitude>
	<Active>false</Active>
	<MaximumDistance>6</MaximumDistance>
	<Role>Manager</Role>
	<Type>Aerial</Type>
  </Volunteer>
</ArrayOfVolunteer>