<?xml version="1.0" encoding="utf-8"?>
<ArrayOfVolunteer xmlns:xsi="http://www.w3.org/2001/XMLSchema-instance" xmlns:xsd="http://www.w3.org/2001/XMLSchema">
  <Volunteer>
    <Id>621919497</Id>
    <Name>Noa Levi</Name>
    <Phone>0524294010</Phone>
    <Mail>noalevi@gmail.com</Mail>
    <Password>iE7@5}GZ</Password>
    <Address>Ben Gurion St 5, Ramat Gan, 5222002</Address>
    <Latitude>32.082271</Latitude>
    <Longitude>34.812548</Longitude>
    <Active>true</Active>
    <MaximumDistance>9</MaximumDistance>
    <Role>Volunteer</Role>
    <Type>Aerial</Type>
  </Volunteer>
  <Volunteer>
    <Id>695251793</Id>
    <Name>Yonatan Mizrahi</Name>
    <Phone>0537798887</Phone>
    <Mail>yonatanmizrahi@gmail.com</Mail>
    <Password>kM3)}pXl</Password>
    <Address>Dizengoff St 25, Tel Aviv, 6311701</Address>
    <Latitude>32.08048</Latitude>
    <Longitude>34.774989</Longitude>
    <Active>true</Active>
    <MaximumDistance>7</MaximumDistance>
    <Role>Volunteer</Role>
    <Type>Aerial</Type>
  </Volunteer>
  <Volunteer>
    <Id>971648142</Id>
    <Name>Maya Azulay</Name>
    <Phone>0540299717</Phone>
    <Mail>mayaazulay@gmail.com</Mail>
    <Password>vX6*$H|1</Password>
    <Address>Allenby St 40, Haifa, 3313302</Address>
    <Latitude>32.818409</Latitude>
    <Longitude>34.988507</Longitude>
    <Active>true</Active>
    <MaximumDistance>7</MaximumDistance>
    <Role>Volunteer</Role>
    <Type>Aerial</Type>
  </Volunteer>
  <Volunteer>
    <Id>365379163</Id>
    <Name>Daniel Gold</Name>
    <Phone>0504658523</Phone>
    <Mail>danielgold@gmail.com</Mail>
    <Password>nS0?AhiA</Password>
    <Address>Jaffa St 60, Jerusalem, 9434101</Address>
    <Latitude>31.784217</Latitude>
    <Longitude>35.223391</Longitude>
    <Active>true</Active>
    <MaximumDistance>5</MaximumDistance>
    <Role>Volunteer</Role>
    <Type>Aerial</Type>
  </Volunteer>
  <Volunteer>
    <Id>578931917</Id>
    <Name>Hila Shalom</Name>
    <Phone>0538941724</Phone>
    <Mail>hilashalom@gmail.com</Mail>
    <Password>lM0!a(ID</Password>
    <Address>Rothschild Blvd 16, Tel Aviv, 6688112</Address>
    <Latitude>32.063922</Latitude>
    <Longitude>34.771805</Longitude>
    <Active>true</Active>
    <MaximumDistance>1</MaximumDistance>
    <Role>Volunteer</Role>
    <Type>Aerial</Type>
  </Volunteer>
  <Volunteer>
    <Id>454888868</Id>
    <Name>Tomer Kaplan</Name>
    <Phone>0550876069</Phone>
    <Mail>tomerkaplan@gmail.com</Mail>
    <Password>yO9}Cv,j</Password>
    <Address>Weizmann St 12, Kfar Saba, 4428104</Address>
    <Latitude>32.175034</Latitude>
    <Longitude>34.906552</Longitude>
    <Active>true</Active>
    <MaximumDistance>3</MaximumDistance>
    <Role>Volunteer</Role>
    <Type>Aerial</Type>
  </Volunteer>
  <Volunteer>
    <Id>824553838</Id>
    <Name>Yael Ben-David</Name>
    <Phone>0500255272</Phone>
    <Mail>yaelben-david@gmail.com</Mail>
    <Password>nC5**ltd</Password>
    <Address>HaNasi St 8, Herzliya, 4650403</Address>
    <Latitude>32.166313</Latitude>
    <Longitude>34.842972</Longitude>
    <Active>true</Active>
    <MaximumDistance>0</MaximumDistance>
    <Role>Volunteer</Role>
    <Type>Aerial</Type>
  </Volunteer>
  <Volunteer>
    <Id>420665366</Id>
    <Name>Eitan Sade</Name>
    <Phone>0508781648</Phone>
    <Mail>eitansade@gmail.com</Mail>
    <Password>eC5(wR.!</Password>
    <Address>Sokolov St 30, Holon, 5831801</Address>
    <Latitude>32.014046</Latitude>
    <Longitude>34.772101</Longitude>
    <Active>true</Active>
    <MaximumDistance>7</MaximumDistance>
    <Role>Volunteer</Role>
    <Type>Aerial</Type>
  </Volunteer>
  <Volunteer>
    <Id>697195113</Id>
    <Name>Shira Hadad</Name>
    <Phone>0503002635</Phone>
    <Mail>shirahadad@gmail.com</Mail>
    <Password>dF3"gnbm</Password>
    <Address>Ben Yehuda St 100, Tel Aviv, 6347511</Address>
    <Latitude>32.089771</Latitude>
    <Longitude>34.773922</Longitude>
    <Active>true</Active>
    <MaximumDistance>4</MaximumDistance>
    <Role>Volunteer</Role>
    <Type>Aerial</Type>
  </Volunteer>
  <Volunteer>
    <Id>114859093</Id>
    <Name>Lior Oren</Name>
    <Phone>0543794898</Phone>
    <Mail>liororen@gmail.com</Mail>
    <Password>lR2*(3od</Password>
    <Address>Ehad HaAm St 50, Beersheba, 8455802</Address>
    <Latitude>31.25181</Latitude>
    <Longitude>34.79146</Longitude>
    <Active>false</Active>
    <MaximumDistance>9</MaximumDistance>
    <Role>Volunteer</Role>
    <Type>Aerial</Type>
  </Volunteer>
  <Volunteer>
    <Id>890840234</Id>
    <Name>Roni Peretz</Name>
    <Phone>0536525544</Phone>
    <Mail>roniperetz@gmail.com</Mail>
    <Password>fD0$^TCy</Password>
    <Address>Herzliya St 15, Netanya, 4241102</Address>
    <Latitude>32.328516</Latitude>
    <Longitude>34.853196</Longitude>
    <Active>false</Active>
    <MaximumDistance>0</MaximumDistance>
    <Role>Volunteer</Role>
    <Type>Aerial</Type>
  </Volunteer>
  <Volunteer>
    <Id>854007960</Id>
    <Name>Yaakov Azulay</Name>
    <Phone>0520054498</Phone>
    <Mail>yaakovazulay@gmail.com</Mail>
    <Password>hX2!X{|E</Password>
    <Address>Keren HaYesod St 22, Ashdod, 7728203</Address>
    <Latitude>31.802418</Latitude>
    <Longitude>34.641665</Longitude>
    <Active>false</Active>
    <MaximumDistance>7</MaximumDistance>
    <Role>Volunteer</Role>
    <Type>Aerial</Type>
  </Volunteer>
  <Volunteer>
    <Id>172498495</Id>
    <Name>Eden Dayan</Name>
    <Phone>0542669639</Phone>
    <Mail>edendayan@gmail.com</Mail>
    <Password>fA6#dsAq</Password>
    <Address>Herzl St 45, Rishon LeZion, 7522001</Address>
    <Latitude>31.969633</Latitude>
    <Longitude>34.80439</Longitude>
    <Active>false</Active>
    <MaximumDistance>7</MaximumDistance>
    <Role>Volunteer</Role>
    <Type>Aerial</Type>
  </Volunteer>
  <Volunteer>
    <Id>302529904</Id>
    <Name>Talia Mor</Name>
    <Phone>0545061505</Phone>
    <Mail>taliamor@gmail.com</Mail>
    <Password>zO1*NZXd</Password>
    <Address>Moshe Dayan St 3, Ashkelon, 7878203</Address>
    <Latitude>31.669258</Latitude>
    <Longitude>34.574262</Longitude>
    <Active>false</Active>
    <MaximumDistance>3</MaximumDistance>
    <Role>Volunteer</Role>
    <Type>Aerial</Type>
  </Volunteer>
  <Volunteer>
    <Id>594677072</Id>
    <Name>Amit Cohen</Name>
    <Phone>0541809951</Phone>
    <Mail>amitcohen@gmail.com</Mail>
    <Password>sX4.nQ@0</Password>
    <Address>Herzl St 12, Tel Aviv</Address>
    <Latitude>32.0930836</Latitude>
    <Longitude>34.8354289</Longitude>
    <Active>true</Active>
    <MaximumDistance>9</MaximumDistance>
    <Role>Manager</Role>
    <Type>Aerial</Type>
  </Volunteer>
</ArrayOfVolunteer>