<?xml version="1.0" encoding="utf-8"?>
<ArrayOfVolunteer xmlns:xsi="http://www.w3.org/2001/XMLSchema-instance" xmlns:xsd="http://www.w3.org/2001/XMLSchema">
  <Volunteer>
    <Id>123456782</Id>
    <Name>Amit Cohen</Name>
    <Phone>0532128824</Phone>
    <Mail>amitcohen@gmail.com</Mail>
    <Password>12!@MAnager</Password>
    <Address>Herzl St 10, Tel Aviv</Address>
    <Latitude>32.066158</Latitude>
    <Longitude>34.779808</Longitude>
    <Active>true</Active>
    <MaximumDistance>4</MaximumDistance>
    <Role>Manager</Role>
    <Type>Aerial</Type>
  </Volunteer>
  <Volunteer>
    <Id>234567893</Id>
    <Name>Noa Levi</Name>
    <Phone>0500049325</Phone>
    <Mail>noalevi@gmail.com</Mail>
    <Password>cJ3)N3%)</Password>
    <Address>Ben Gurion St 5, Ramat Gan</Address>
    <Latitude>32.082271</Latitude>
    <Longitude>34.812548</Longitude>
    <Active>true</Active>
    <MaximumDistance>5</MaximumDistance>
    <Role>Volunteer</Role>
    <Type>Aerial</Type>
  </Volunteer>
  <Volunteer>
    <Id>345678904</Id>
    <Name>Yonatan Mizrahi</Name>
    <Phone>0559015798</Phone>
    <Mail>yonatanmizrahi@gmail.com</Mail>
    <Password>pT7^jxQ@</Password>
    <Address>Dizengoff St 25, Tel Aviv</Address>
    <Latitude>32.08048</Latitude>
    <Longitude>34.774989</Longitude>
    <Active>true</Active>
    <MaximumDistance>9</MaximumDistance>
    <Role>Volunteer</Role>
    <Type>Aerial</Type>
  </Volunteer>
  <Volunteer>
    <Id>456789015</Id>
    <Name>Maya Azulay</Name>
    <Phone>0583584591</Phone>
    <Mail>mayaazulay@gmail.com</Mail>
    <Password>cZ8?Tq$s</Password>
    <Address>Allenby St 40, Haifa</Address>
    <Latitude>32.818409</Latitude>
    <Longitude>34.988507</Longitude>
    <Active>true</Active>
    <MaximumDistance>12</MaximumDistance>
    <Role>Volunteer</Role>
    <Type>Aerial</Type>
  </Volunteer>
  <Volunteer>
    <Id>567890126</Id>
    <Name>Daniel Gold</Name>
    <Phone>0553339597</Phone>
    <Mail>danielgold@gmail.com</Mail>
    <Password>nQ4%g89g</Password>
    <Address>Jaffa St 60, Jerusalem</Address>
    <Latitude>31.784217</Latitude>
    <Longitude>35.223391</Longitude>
    <Active>true</Active>
    <MaximumDistance>1</MaximumDistance>
    <Role>Volunteer</Role>
    <Type>Aerial</Type>
  </Volunteer>
  <Volunteer>
    <Id>678901237</Id>
    <Name>Hila Shalom</Name>
    <Phone>0530270653</Phone>
    <Mail>hilashalom@gmail.com</Mail>
    <Password>aY3)j,d?</Password>
    <Address>Rothschild Blvd 16, Tel Aviv</Address>
    <Latitude>32.063922</Latitude>
    <Longitude>34.771805</Longitude>
    <Active>true</Active>
    <MaximumDistance>14</MaximumDistance>
    <Role>Volunteer</Role>
    <Type>Aerial</Type>
  </Volunteer>
  <Volunteer>
    <Id>789012348</Id>
    <Name>Tomer Kaplan</Name>
    <Phone>0544614208</Phone>
    <Mail>tomerkaplan@gmail.com</Mail>
    <Password>hQ5^nm{e</Password>
    <Address>Weizmann St 12, Kfar Saba</Address>
    <Latitude>32.175034</Latitude>
    <Longitude>34.906552</Longitude>
    <Active>true</Active>
    <MaximumDistance>5</MaximumDistance>
    <Role>Volunteer</Role>
    <Type>Aerial</Type>
  </Volunteer>
  <Volunteer>
    <Id>890123459</Id>
    <Name>Yael Ben-David</Name>
    <Phone>0553231455</Phone>
    <Mail>yaelben-david@gmail.com</Mail>
    <Password>xM6,u0rx</Password>
    <Address>HaNasi St 8, Herzliya</Address>
    <Latitude>32.166313</Latitude>
    <Longitude>34.842972</Longitude>
    <Active>true</Active>
    <MaximumDistance>1</MaximumDistance>
    <Role>Volunteer</Role>
    <Type>Aerial</Type>
  </Volunteer>
  <Volunteer>
    <Id>901234560</Id>
    <Name>Eitan Sade</Name>
    <Phone>0529031949</Phone>
    <Mail>eitansade@gmail.com</Mail>
    <Password>wG5%4BlW</Password>
    <Address>Sokolov St 30, Holon</Address>
    <Latitude>32.014046</Latitude>
    <Longitude>34.772101</Longitude>
    <Active>true</Active>
    <MaximumDistance>10</MaximumDistance>
    <Role>Volunteer</Role>
    <Type>Aerial</Type>
  </Volunteer>
  <Volunteer>
    <Id>123450782</Id>
    <Name>Shira Hadad</Name>
    <Phone>0525356996</Phone>
    <Mail>shirahadad@gmail.com</Mail>
    <Password>vE9@5nH^</Password>
    <Address>Ben Yehuda St 100, Tel Aviv</Address>
    <Latitude>32.089771</Latitude>
    <Longitude>34.773922</Longitude>
    <Active>true</Active>
    <MaximumDistance>2</MaximumDistance>
    <Role>Volunteer</Role>
    <Type>Aerial</Type>
  </Volunteer>
  <Volunteer>
    <Id>234561893</Id>
    <Name>Lior Oren</Name>
    <Phone>0583524962</Phone>
    <Mail>liororen@gmail.com</Mail>
    <Password>lB6$R)p?</Password>
    <Address>Ehad HaAm St 50, Beersheba</Address>
    <Latitude>31.25181</Latitude>
    <Longitude>34.79146</Longitude>
    <Active>false</Active>
    <MaximumDistance>8</MaximumDistance>
    <Role>Volunteer</Role>
    <Type>Aerial</Type>
  </Volunteer>
  <Volunteer>
    <Id>345672904</Id>
    <Name>Roni Peretz</Name>
    <Phone>0532222758</Phone>
    <Mail>roniperetz@gmail.com</Mail>
    <Password>fI7%yY0M</Password>
    <Address>Herzliya St 15, Netanya</Address>
    <Latitude>32.328516</Latitude>
    <Longitude>34.853196</Longitude>
    <Active>false</Active>
    <MaximumDistance>0</MaximumDistance>
    <Role>Volunteer</Role>
    <Type>Aerial</Type>
  </Volunteer>
  <Volunteer>
    <Id>456783015</Id>
    <Name>Yaakov Azulay</Name>
    <Phone>0553604059</Phone>
    <Mail>yaakovazulay@gmail.com</Mail>
    <Password>hK1$ufoZ</Password>
    <Address>Keren HaYesod St 22, Ashdod</Address>
    <Latitude>31.802418</Latitude>
    <Longitude>34.641665</Longitude>
    <Active>false</Active>
    <MaximumDistance>6</MaximumDistance>
    <Role>Volunteer</Role>
    <Type>Aerial</Type>
  </Volunteer>
  <Volunteer>
    <Id>567894126</Id>
    <Name>Eden Dayan</Name>
    <Phone>0520318011</Phone>
    <Mail>edendayan@gmail.com</Mail>
    <Password>tO3}4|Vg</Password>
    <Address>Herzl St 45, Rishon LeZion</Address>
    <Latitude>31.969633</Latitude>
    <Longitude>34.80439</Longitude>
    <Active>false</Active>
    <MaximumDistance>13</MaximumDistance>
    <Role>Volunteer</Role>
    <Type>Aerial</Type>
  </Volunteer>
  <Volunteer>
    <Id>678905237</Id>
    <Name>Talia Mor</Name>
    <Phone>0536493608</Phone>
    <Mail>taliamor@gmail.com</Mail>
    <Password>hM3%lYRD</Password>
    <Address>Moshe Dayan St 3, Ashkelon</Address>
    <Latitude>31.669258</Latitude>
    <Longitude>34.574262</Longitude>
    <Active>false</Active>
    <MaximumDistance>1</MaximumDistance>
    <Role>Volunteer</Role>
    <Type>Aerial</Type>
  </Volunteer>
  <Volunteer>
    <Id>213899412</Id>
    <Name>hila</Name>
    <Phone>0509931788</Phone>
    <Mail>hila@gmail.com</Mail>
    <Password>1234Hh!!@</Password>
    <Address>Moshe Dayan St 3, Ashkelon</Address>
    <Latitude>31.6794728</Latitude>
    <Longitude>34.5594087</Longitude>
    <Active>true</Active>
    <MaximumDistance>7</MaximumDistance>
    <Role>Volunteer</Role>
    <Type>Aerial</Type>
  </Volunteer>
</ArrayOfVolunteer>